business_id,num_reviews,num_relationship_words,aunt,bff,boo,boss,boyfriend,brother,child,classmate,client,cousin,coworker,date,daughter,father,fiancee,friend,girlfriend,grandchild,grandfather,grandmother,grandparents,housemate,husband,mother,neighbor,nephew,niece,parent,partner,professor,relationship,siblings,sister,son,spouse,teacher,uncle,wife,family,romantic,friendship,professional,family_pct,romantic_pct,friendship_pct,professional_pct,city,review_count,name,longitude,state,stars,address,latitude,metroarea,categories,is_active,is_arts,is_auto,is_beautysvc,is_bicycles,is_education,is_eventservices,is_financialservices,is_food,is_health,is_homeservices,is_hotelstravel,is_localflavor,is_localservices,is_massmedia,is_nightlife,is_pets,is_professional,is_publicservicesgovt,is_religiousorgs,is_restaurants,is_shopping
YjUWPpI6HXG530lwP-fb2A,38,4,0,0,0,0,0,0,0,0,0,0,0,0,0,0,0,2,0,0,0,0,0,0,1,0,0,0,0,0,0,0,0,0,0,0,0,0,0,1,0,2,2,0,0.0,0.5,0.5,0.0,Tucson,47,Kettle Restaurant,-110.9808639,AZ,3.5,748 W Starr Pass Blvd,32.2072326,Tucson,"Restaurants, Breakfast & Brunch",False,False,False,False,False,False,False,False,False,False,False,False,False,False,False,False,False,False,False,False,True,False
otQS34_MymijPTdNBoBdCw,415,52,0,0,0,0,6,2,2,0,0,1,0,0,3,1,1,13,2,0,0,0,0,2,8,0,0,0,0,1,0,0,0,0,2,2,0,0,0,6,14,23,15,0,0.2692307692307692,0.4423076923076923,0.28846153846153844,0.0,Tucson,492,BK Tacos,-110.9605596,AZ,4.0,2680 N 1st Ave,32.2558336,Tucson,"Restaurants, Tacos, Mexican, Hot Dogs, Breakfast & Brunch, Steakhouses",False,False,False,False,False,False,False,False,False,False,False,False,False,False,False,False,False,False,False,False,True,False
5Ce3lZksYVkCbrihqylVHQ,138,28,0,0,0,0,3,0,4,0,0,0,0,0,0,1,0,7,1,0,0,0,0,0,6,0,0,0,0,0,0,0,0,0,0,1,0,0,0,5,6,15,7,0,0.21428571428571427,0.5357142857142857,0.25,0.0,Tucson,159,Sushi Nara,-110.788132,AZ,4.5,64 N Harrison Rd,32.222552,Tucson,"Sushi Bars, Japanese, Restaurants",False,False,False,False,False,False,False,False,False,False,False,False,False,False,False,False,False,False,False,False,True,False
W7NxQw8UYFR0HLPrI08tvw,61,6,0,0,0,0,0,0,0,0,0,0,1,0,0,1,0,1,0,0,0,0,0,0,0,0,0,0,0,0,0,0,0,0,0,0,0,0,0,3,1,3,1,1,0.16666666666666666,0.5,0.16666666666666666,0.16666666666666666,Tucson,76,Chipotle Mexican Grill,-110.890924657,AZ,3.0,4774 E Grant Rd,32.250019,Tucson,"Restaurants, Fast Food, Mexican",False,False,False,False,False,False,False,False,True,False,False,False,False,False,False,False,False,False,False,False,True,False
zt2JwrXrou8PyDELJOOA_w,5,2,0,0,0,0,0,0,0,0,0,0,0,0,0,0,0,1,0,0,0,0,0,0,1,0,0,0,0,0,0,0,0,0,0,0,0,0,0,0,0,1,1,0,0.0,0.5,0.5,0.0,Tucson,5,Alexander Customs,-110.8745844,AZ,4.0,1675 S Craycroft Rd,32.2019151,Tucson,"Auto Detailing, Automotive, Auto Repair, Tires, Auto Glass Services",False,False,True,False,False,False,False,False,False,False,False,False,False,False,False,False,False,False,False,False,False,False
7L1kXfwU5XM6f6Jxo_L7Yg,95,23,0,0,0,0,0,0,2,0,0,0,0,0,0,2,0,3,0,0,0,0,0,0,4,2,0,0,0,0,1,0,0,0,1,2,0,0,0,6,9,11,3,0,0.391304347826087,0.4782608695652174,0.13043478260869565,0.0,Tucson,116,Casa Molina Del Norte,-110.9440973,AZ,3.0,3001 N Campbell Ave,32.2614029,Tucson,"Latin American, Mexican, Restaurants",False,False,False,False,False,False,False,False,False,False,False,False,False,False,False,False,False,False,False,False,True,False
9xm4aIAT_xwRoTxc0_8AWQ,39,4,0,0,0,0,0,0,0,0,0,0,0,0,0,0,0,0,0,0,0,0,0,0,3,0,0,0,0,0,0,0,0,0,0,0,0,0,0,1,0,4,0,0,0.0,1.0,0.0,0.0,Tucson,44,Townplace Suites Tucson Airport,-110.930080265,AZ,4.5,6595 S Bay Colony Dr,32.1322131013,Tucson,"Hotels, Hotels & Travel, Event Planning & Services",False,False,False,False,False,False,True,False,False,False,False,True,False,False,False,False,False,False,False,False,False,False
aZyCHVqXnz81fW1_KbFq0w,129,18,0,0,0,0,0,0,1,0,0,0,0,0,1,2,0,4,0,0,0,0,0,0,5,0,0,0,1,2,0,0,0,0,0,0,1,0,0,1,7,7,4,0,0.3888888888888889,0.3888888888888889,0.2222222222222222,0.0,Tucson,179,Saguaro National Park,-110.7363,AZ,4.5,3693 S Old Spanish Trl,32.180208,Tucson,"Active Life, Parks",True,False,False,False,False,False,False,False,False,False,False,False,False,False,False,False,False,False,False,False,False,False
VO5Jphyqmoa62lbA7-vzpQ,162,30,0,0,0,0,1,0,3,0,0,1,0,0,1,0,2,1,0,0,0,1,1,0,7,3,0,0,0,1,0,0,0,0,3,4,0,0,0,1,18,11,1,0,0.6,0.36666666666666664,0.03333333333333333,0.0,Tucson,165,Gaslight Theatre,-110.8431381,AZ,4.5,7010 E Broadway Blvd,32.2203531,Tucson,"Arts & Entertainment, Performing Arts",False,True,False,False,False,False,False,False,False,False,False,False,False,False,False,False,False,False,False,False,False,False
WLiqfxv_GhFFA5sm878a2w,99,18,0,0,0,0,0,0,1,0,0,2,0,0,0,0,0,3,0,0,1,0,0,0,2,1,0,2,0,2,0,0,0,0,0,1,0,0,0,3,10,5,3,0,0.5555555555555556,0.2777777777777778,0.16666666666666666,0.0,Tucson,109,Wei Asian Cafe,-110.7915138,AZ,4.0,"9450 E Golf Links Rd, Ste 102",32.1903953,Tucson,"Chinese, Restaurants",False,False,False,False,False,False,False,False,False,False,False,False,False,False,False,False,False,False,False,False,True,False
3YERGr7UbpSpddqL0Eiu5g,63,16,0,0,0,0,2,0,0,0,0,0,0,0,0,0,0,1,1,0,0,0,0,0,6,1,0,0,0,0,0,0,0,0,1,0,0,0,0,4,2,13,1,0,0.125,0.8125,0.0625,0.0,Tucson,73,Mariscos Chihuahua,-111.0542141,AZ,4.0,4185 W Ina Rd,32.3370125,Tucson,"Seafood, Restaurants",False,False,False,False,False,False,False,False,False,False,False,False,False,False,False,False,False,False,False,False,True,False
wa_bwyY57etHjtJ2Fw0E3g,437,88,0,0,0,1,5,1,5,0,0,0,3,0,12,2,1,19,0,0,1,1,1,0,16,5,0,0,1,1,1,0,0,0,1,3,0,0,0,8,34,31,19,4,0.38636363636363635,0.3522727272727273,0.2159090909090909,0.045454545454545456,Tucson,464,Pita Jungle,-110.8789015,AZ,3.5,5340 E Broadway Blvd,32.2208987,Tucson,"Vegetarian, American (New), Mediterranean, Sandwiches, Restaurants",False,False,False,False,False,False,False,False,False,False,False,False,False,False,False,False,False,False,False,False,True,False
dygflr6j51vf3-lM5pUIkw,9,4,0,0,0,0,0,1,0,0,0,0,0,0,1,0,0,1,0,0,0,0,0,0,0,0,0,0,0,0,0,0,0,0,0,0,0,0,0,1,2,1,1,0,0.5,0.25,0.25,0.0,Tucson,10,El Dorado,-110.9649605,AZ,2.5,1949 S 4th Ave,32.1988535,Tucson,"Mexican, Latin American, Restaurants",False,False,False,False,False,False,False,False,False,False,False,False,False,False,False,False,False,False,False,False,True,False
p3XlbP2aZa-NBRqJ4p3KLw,27,2,0,0,0,0,0,0,0,0,0,0,0,0,0,0,0,0,0,0,0,0,0,0,1,0,0,0,0,0,0,0,0,0,0,0,0,0,0,1,0,2,0,0,0.0,1.0,0.0,0.0,Tucson,27,Seafood Time,-110.9449355,AZ,4.0,1800 E Fort Lowell Rd,32.2641365,Tucson,"Restaurants, Seafood, Chinese",False,False,False,False,False,False,False,False,False,False,False,False,False,False,False,False,False,False,False,False,True,False
q0Fi4n7shUTmlxl-mMPVXA,14,4,0,0,0,0,0,0,1,0,0,0,0,0,1,0,0,0,0,0,0,0,0,0,0,0,0,0,0,0,0,0,0,0,0,0,0,0,0,2,2,2,0,0,0.5,0.5,0.0,0.0,Tucson,13,Banner Urgent Care,-110.8589241,AZ,3.5,"1101 N Wilmot Rd, Ste 101",32.2371687,Tucson,"Doctors, Urgent Care, Health & Medical, Emergency Rooms",False,False,False,False,False,False,False,False,False,True,False,False,False,False,False,False,False,False,False,False,False,False
fgTOJRkc703E4XRdcr5zRA,163,24,0,0,0,0,3,0,1,0,0,0,0,0,0,0,1,11,1,0,0,0,0,0,4,0,0,0,0,0,1,0,0,0,0,1,0,0,0,1,2,11,11,0,0.08333333333333333,0.4583333333333333,0.4583333333333333,0.0,Tucson,182,Chatime - Bubble Tea Cafe,-110.9449355,AZ,3.5,"1800 E Fort Lowell Rd, Ste 140",32.2641365,Tucson,"Cafes, Restaurants, Taiwanese, Desserts, Juice Bars & Smoothies, Coffee & Tea, Tea Rooms, Bubble Tea, Food",False,False,False,False,False,False,False,False,True,False,False,False,False,False,False,False,False,False,False,False,True,False
0Kn5W22UmxOqPj2cjouFNA,42,4,0,0,0,0,0,0,1,0,0,0,0,0,1,0,0,1,0,0,0,0,0,0,1,0,0,0,0,0,0,0,0,0,0,0,0,0,0,0,2,1,1,0,0.5,0.25,0.25,0.0,Tucson,36,Silver Mine Subs,-110.957777678,AZ,3.0,760 N Tyndall Ave,32.2313560123,Tucson,"Restaurants, Sandwiches",False,False,False,False,False,False,False,False,False,False,False,False,False,False,False,False,False,False,False,False,True,False
YUUMXtU66B4rxwJohSQm7A,11,2,0,0,0,0,1,0,0,0,0,0,0,0,0,0,0,0,0,0,0,0,0,0,0,0,0,0,0,0,1,0,0,0,0,0,0,0,0,0,0,2,0,0,0.0,1.0,0.0,0.0,Tucson,11,Tucson Cookie,-110.9348592,AZ,4.0,2513 E 6th St,32.2281415,Tucson,"Desserts, Comfort Food, Restaurants, Food, Bakeries, Food Delivery Services",False,False,False,False,False,False,False,False,True,False,False,False,False,False,False,False,False,False,False,False,True,False
RPxrAiJ3krxtv-UQmt0RlQ,32,9,0,0,0,0,0,0,2,0,0,0,0,0,1,0,0,0,0,0,0,0,0,0,2,1,0,0,0,0,0,0,0,0,0,1,0,0,0,2,5,4,0,0,0.5555555555555556,0.4444444444444444,0.0,0.0,Tucson,36,Orange Grove Family Practice,-111.013464633,AZ,2.0,2155 W Orange Grove Rd,32.3225442597,Tucson,"Doctors, Family Practice, Health & Medical",False,False,False,False,False,False,False,False,False,True,False,False,False,False,False,False,False,False,False,False,False,False
cXAKeC-EgVChIxhS7fscmw,362,88,0,0,0,0,5,2,0,0,1,0,0,1,4,2,1,27,3,0,0,0,0,0,17,5,0,1,0,0,1,0,0,0,1,2,0,0,0,15,17,43,27,1,0.19318181818181818,0.48863636363636365,0.3068181818181818,0.011363636363636364,Tucson,427,Ghini's French Caffe,-110.944434852,AZ,3.5,1803 E Prince Rd,32.2735760993,Tucson,"Restaurants, Food, Breakfast & Brunch, Sandwiches, French, Bakeries, Salad",False,False,False,False,False,False,False,False,True,False,False,False,False,False,False,False,False,False,False,False,True,False
UCMSWPqzXjd7QHq7v8PJjQ,1898,375,2,1,1,0,23,4,8,0,1,2,0,2,29,5,6,96,16,0,0,1,1,0,82,20,0,2,1,4,6,0,0,0,16,9,0,0,0,37,104,173,97,1,0.2773333333333333,0.4613333333333333,0.25866666666666666,0.0026666666666666666,Tucson,2126,Prep & Pastry,-110.94349236,AZ,4.5,2660 N Campbell Ave,32.25552801,Tucson,"Restaurants, Cocktail Bars, Bars, Comfort Food, American (New), Sandwiches, Nightlife, Breakfast & Brunch",False,False,False,False,False,False,False,False,True,False,False,False,False,False,False,True,False,False,False,False,True,False
RhuYqAT45uIR2NNdDsolXQ,168,14,0,0,0,0,3,0,0,0,0,0,0,0,2,0,0,1,0,0,0,0,1,0,2,1,0,0,0,1,2,0,0,0,0,0,1,0,0,0,5,8,1,0,0.35714285714285715,0.5714285714285714,0.07142857142857142,0.0,Tucson,207,St Mary's Mexican Food,-110.9875711,AZ,4.0,1030 W St Marys Rd,32.2299895,Tucson,"Restaurants, Mexican",False,False,False,False,False,False,False,False,False,False,False,False,False,False,False,False,False,False,False,False,True,False
onFzWveuDXbSOmq9CdBfPQ,32,6,0,0,0,0,0,0,0,0,0,0,0,0,0,0,0,2,0,0,0,0,0,0,1,0,0,0,0,0,0,0,0,0,0,0,0,0,0,3,0,4,2,0,0.0,0.6666666666666666,0.3333333333333333,0.0,Tucson,35,RideNow Powersports Ina,-111.0580564,AZ,2.5,4375 W Ina Rd,32.3369571,Tucson,"Automotive, Motorcycle Gear, Motorsport Vehicle Dealers, Motorsport Vehicle Repairs, Motorcycle Repair, Motorcycle Dealers, Shopping",False,False,True,False,False,False,False,False,False,False,False,False,False,False,False,False,False,False,False,False,False,True
GlYN-RJyL_YwxIqsSDo1ag,263,44,0,0,0,0,2,1,3,0,0,0,0,0,1,1,1,10,0,0,0,1,0,0,12,2,0,0,0,1,1,0,0,0,0,2,0,0,0,6,12,22,10,0,0.2727272727272727,0.5,0.22727272727272727,0.0,Tucson,250,Mother Hubbard's Café,-110.9728955,AZ,3.5,14 W Grant Rd,32.2510448,Tucson,"Diners, American (Traditional), Restaurants, Breakfast & Brunch, American (New), Waffles, Cafes",False,False,False,False,False,False,False,False,False,False,False,False,False,False,False,False,False,False,False,False,True,False
gwNlSSV0hGgNgTqPprj4FQ,47,11,0,0,0,0,1,0,0,0,0,0,0,1,0,0,0,3,0,0,0,0,0,0,4,0,0,0,0,0,0,0,0,0,0,0,0,0,0,2,0,8,3,0,0.0,0.7272727272727273,0.2727272727272727,0.0,Tucson,43,Fresh Cafe and Catering,-110.935407,AZ,4.0,"2404 E River Rd, Ste 132",32.2859864,Tucson,"Coffee & Tea, Cafes, Food, Bakeries, Juice Bars & Smoothies, Restaurants, American (Traditional)",False,False,False,False,False,False,False,False,True,False,False,False,False,False,False,False,False,False,False,False,True,False
SbdL-8NSmTWgSwdGZBa7WQ,204,38,0,0,0,1,1,2,1,0,0,0,0,0,3,0,0,5,0,0,0,0,0,1,10,3,0,0,0,0,1,0,0,0,1,1,0,0,0,8,11,20,6,1,0.2894736842105263,0.5263157894736842,0.15789473684210525,0.02631578947368421,Tucson,240,Fresco Pizzeria,-110.9276826,AZ,4.0,3011 E Speedway Blvd,32.2364624,Tucson,"Food, Food Delivery Services, Salad, Italian, Pizza, Restaurants",False,False,False,False,False,False,False,False,True,False,False,False,False,False,False,False,False,False,False,False,True,False
-02xFuruu85XmDn2xiynJw,102,17,0,0,0,0,0,0,1,0,0,0,0,0,1,0,0,5,0,0,0,0,0,0,4,0,0,0,0,0,0,0,0,0,0,4,0,0,0,2,6,6,5,0,0.35294117647058826,0.35294117647058826,0.29411764705882354,0.0,Tucson,109,Family Vision Center,-110.8331729,AZ,4.5,7475 E Tanque Verde Rd,32.2510387,Tucson,"Shopping, Ophthalmologists, Optometrists, Doctors, Eyewear & Opticians, Health & Medical, Laser Eye Surgery/Lasik",False,False,False,False,False,False,False,False,False,True,False,False,False,False,False,False,False,False,False,False,False,True
V9XlikTxq0My4gE8LULsjw,278,82,1,0,0,0,1,2,1,0,0,1,0,3,3,0,0,8,5,0,0,1,0,0,18,3,0,0,0,1,0,0,0,0,2,6,0,0,0,26,21,53,8,0,0.25609756097560976,0.6463414634146342,0.0975609756097561,0.0,Tucson,325,Claim Jumper Steakhouse & Bar,-110.91307,AZ,2.5,3761 E Broadway Blvd,32.22188,Tucson,"Restaurants, Nightlife, Seafood, Steakhouses, American (Traditional), Bars",False,False,False,False,False,False,False,False,False,False,False,False,False,False,False,True,False,False,False,False,True,False
EqEcDeXqIq1YwnzHg_ZUFw,206,32,0,0,0,0,1,0,1,0,0,1,0,0,4,1,3,6,2,0,0,0,0,0,9,1,0,0,0,0,1,0,0,0,1,1,0,0,0,0,10,16,6,0,0.3125,0.5,0.1875,0.0,Tucson,243,Frost Gelato,-110.8361532,AZ,4.5,"7301 E Tanque Verde Rd, Ste 191",32.2512893,Tucson,"Coffee & Tea, Desserts, Gelato, Food, Ice Cream & Frozen Yogurt",False,False,False,False,False,False,False,False,True,False,False,False,False,False,False,False,False,False,False,False,False,False
OfI4DC1DVCJ92XcLdFBMFg,79,9,0,0,0,0,0,0,2,0,0,0,0,0,1,0,0,1,0,0,0,0,0,0,1,0,0,0,0,0,0,0,0,0,0,1,0,0,0,3,4,4,1,0,0.4444444444444444,0.4444444444444444,0.1111111111111111,0.0,Tucson,90,Harkins Theatres  Tucson Spectrum 18,-110.987969,AZ,4.0,5455 S Calle Santa Cruz,32.152065,Tucson,"Cinema, Arts & Entertainment",False,True,False,False,False,False,False,False,False,False,False,False,False,False,False,False,False,False,False,False,False,False
8QJTzIaR5FceGds8HBSIig,518,99,1,1,0,1,7,2,1,0,0,0,3,0,3,1,0,26,2,0,0,0,0,1,22,5,0,1,0,0,2,0,0,0,5,3,0,0,0,12,22,45,28,4,0.2222222222222222,0.45454545454545453,0.2828282828282828,0.04040404040404041,Tucson,611,Barrio Brewing,-110.9595118,AZ,4.0,800 E 16th St,32.214412,Tucson,"Nightlife, Sports Bars, Bars, Breweries, Pubs, Restaurants, American (Traditional), Food",False,False,False,False,False,False,False,False,True,False,False,False,False,False,False,True,False,False,False,False,True,False
WbA5ud4InNWkizW7HE5kRQ,454,105,0,0,0,0,10,3,0,0,0,1,0,0,4,1,0,22,7,0,0,0,0,0,24,0,0,1,0,1,4,0,0,0,4,4,0,0,0,19,19,64,22,0,0.18095238095238095,0.6095238095238096,0.20952380952380953,0.0,Tucson,486,Penca,-110.970157,AZ,3.5,50 E Broadway Blvd,32.22097,Tucson,"Mexican, Restaurants, Nightlife, Bars, Venues & Event Spaces, Event Planning & Services",False,False,False,False,False,False,True,False,False,False,False,False,False,False,False,True,False,False,False,False,True,False
vSZRxp9u-zR5hEvOj4J5zA,11,0,0,0,0,0,0,0,0,0,0,0,0,0,0,0,0,0,0,0,0,0,0,0,0,0,0,0,0,0,0,0,0,0,0,0,0,0,0,0,0,0,0,0,,,,,Tucson,16,Merrigans Arizona Road-Runner,-110.9945737,AZ,4.5,4324 N Flowing Wells Rd,32.2854589798,Tucson,"Flooring, Home Services, Automotive, Local Services, Appliances & Repair, RV Dealers, RV Repair",False,False,True,False,False,False,False,False,False,False,True,False,False,True,False,False,False,False,False,False,False,False
YFMYMfz9L3Wraqb9I9TnfA,53,7,0,0,0,0,2,0,0,0,0,0,0,0,0,1,0,0,0,0,0,0,0,0,1,0,0,0,0,0,0,0,0,0,1,1,0,0,0,1,3,4,0,0,0.42857142857142855,0.5714285714285714,0.0,0.0,Tucson,55,Midas,-110.848599446,AZ,2.0,6740 E,32.2483325704,Tucson,"Tires, Automotive, Oil Change Stations, Auto Repair",False,False,True,False,False,False,False,False,False,False,False,False,False,False,False,False,False,False,False,False,False,False
6N9T23_iXkcOCh6boAXpIg,98,31,0,0,0,0,2,0,0,0,0,0,0,0,0,0,0,12,1,0,0,0,0,0,8,3,0,0,0,0,1,0,0,0,1,1,0,0,0,2,5,14,12,0,0.16129032258064516,0.45161290322580644,0.3870967741935484,0.0,Tucson,93,Nox Kitchen + Cocktails,-110.9287346,AZ,3.5,"6370 N Campbell Ave, Ste 160",32.3220708,Tucson,"Restaurants, American (New)",False,False,False,False,False,False,False,False,False,False,False,False,False,False,False,False,False,False,False,False,True,False
QlvRwArDzGNRT_0FAsOSnw,8,1,0,0,0,0,0,0,0,0,0,0,0,0,0,0,0,0,0,0,0,0,0,0,1,0,0,0,0,0,0,0,0,0,0,0,0,0,0,0,0,1,0,0,0.0,1.0,0.0,0.0,Tucson,7,The Vitamin Shoppe,-110.9782858,AZ,4.5,"4329 N Oracle Road, Ste 101",32.2858476,Tucson,"Vitamins & Supplements, Health Markets, Specialty Food, Health & Medical, Shopping, Food",False,False,False,False,False,False,False,False,True,True,False,False,False,False,False,False,False,False,False,False,False,True
CA5BOxKRDPGJgdUQ8OUOpw,593,177,0,0,0,1,10,2,4,0,1,0,3,2,8,4,3,35,8,0,0,1,0,1,42,10,0,1,0,2,2,0,0,0,5,8,0,0,0,24,45,91,36,5,0.2542372881355932,0.5141242937853108,0.2033898305084746,0.02824858757062147,Tucson,608,Maynards,-110.96662733,AZ,4.0,400 N Toole Ave,32.2230921164,Tucson,"Grocery, Burgers, Food, Local Flavor, Restaurants, Salad, American (Traditional), Nightlife, American (New), Bars, Sandwiches, Breakfast & Brunch",False,False,False,False,False,False,False,False,True,False,False,False,True,False,False,True,False,False,False,False,True,False
jlPB8Fx-xS2PW8Ni9NU3fw,56,6,0,0,0,0,0,0,0,0,0,0,0,0,0,0,0,0,0,0,0,0,0,0,3,1,1,0,0,0,0,0,0,0,1,0,0,0,0,0,2,3,1,0,0.3333333333333333,0.5,0.16666666666666666,0.0,Tucson,69,Country Inn & Suites,-110.9332112,AZ,3.5,6681 S Tucson Blvd,32.130867,Tucson,"Hotels & Travel, Event Planning & Services, Hotels, Party & Event Planning, Venues & Event Spaces",False,False,False,False,False,False,True,False,False,False,False,True,False,False,False,False,False,False,False,False,False,False
WF_KgJ1tuhz6rMI4_xZSRw,6,0,0,0,0,0,0,0,0,0,0,0,0,0,0,0,0,0,0,0,0,0,0,0,0,0,0,0,0,0,0,0,0,0,0,0,0,0,0,0,0,0,0,0,,,,,Tucson,9,Al J's Tavern,-110.8858633,AZ,4.5,4980 E 22nd St,32.2064208,Tucson,"Pubs, Nightlife, Dive Bars, Bars, Sports Bars",False,False,False,False,False,False,False,False,False,False,False,False,False,False,False,True,False,False,False,False,False,False
w5DsFKVqKcKXm509vjinqw,36,8,0,0,0,0,0,0,0,0,0,0,0,0,2,0,0,0,1,0,0,0,0,0,3,0,0,0,0,0,0,0,0,0,0,0,0,0,0,2,2,6,0,0,0.25,0.75,0.0,0.0,Tucson,37,Jerry Bobs,-111.011438,AZ,2.5,"2040 W River Rd, Ste 160",32.3070289,Tucson,"Restaurants, American (New)",False,False,False,False,False,False,False,False,False,False,False,False,False,False,False,False,False,False,False,False,True,False
jmwasbZfgj3honf79qKsnA,688,86,0,0,0,0,10,1,3,0,0,0,1,1,2,1,0,17,2,0,0,0,0,0,17,6,0,1,0,1,2,0,0,0,1,4,0,0,1,15,21,47,17,1,0.2441860465116279,0.5465116279069767,0.19767441860465115,0.011627906976744186,Tucson,805,Street- Taco and Beer Co.,-110.9721883,AZ,4.5,58 W Congress St,32.2219642,Tucson,"Mexican, Bars, Restaurants, Nightlife",False,False,False,False,False,False,False,False,False,False,False,False,False,False,False,True,False,False,False,False,True,False
ERl6OCSEIFBOqfjai_jIUg,106,13,0,0,0,0,1,0,1,0,0,0,1,0,0,0,0,0,0,0,0,0,0,0,4,1,0,0,0,0,0,0,0,0,0,2,0,0,0,3,4,8,0,1,0.3076923076923077,0.6153846153846154,0.0,0.07692307692307693,Tucson,125,La Parrilla Suiza,-110.97746,AZ,3.0,2720 N Oracle Rd,32.25642,Tucson,"Restaurants, Mexican",False,False,False,False,False,False,False,False,False,False,False,False,False,False,False,False,False,False,False,False,True,False
jeizWBHYh9bYkf-rey3Ekw,29,3,0,0,0,0,1,0,0,0,0,0,0,0,0,0,0,1,0,0,0,0,0,0,1,0,0,0,0,0,0,0,0,0,0,0,0,0,0,0,0,2,1,0,0.0,0.6666666666666666,0.3333333333333333,0.0,Tucson,29,At Lash Studio,-110.944524,AZ,5.0,"1865 E River Rd, Ste 151",32.288101,Tucson,"Beauty & Spas, Eyelash Service, Day Spas",False,False,False,True,False,False,False,False,False,False,False,False,False,False,False,False,False,False,False,False,False,False
Wd9JBLjCCh5yTF0vPAxCAA,168,40,0,0,0,0,1,1,0,0,0,0,1,0,7,1,0,7,0,0,0,1,0,0,3,5,0,0,0,0,3,0,0,0,2,3,0,0,0,5,20,12,7,1,0.5,0.3,0.175,0.025,Tucson,202,El Merendero,-110.9772317,AZ,4.0,5443 S 12th Ave,32.1526671,Tucson,"Mexican, Restaurants",False,False,False,False,False,False,False,False,False,False,False,False,False,False,False,False,False,False,False,False,True,False
ONKvCIc4eIXG3nutUAFe3w,11,1,0,0,0,0,0,0,0,0,0,0,0,0,0,0,0,0,0,0,0,0,0,0,0,0,0,0,0,0,0,0,0,0,0,0,0,0,0,1,0,1,0,0,0.0,1.0,0.0,0.0,Tucson,11,Lucky Girl Cafe,-110.926521915,AZ,4.5,,32.2213798394,Tucson,"Food, Sandwiches, Restaurants, Food Trucks",False,False,False,False,False,False,False,False,True,False,False,False,False,False,False,False,False,False,False,False,True,False
f82dhKNiUXsDVPMLqKYiIQ,372,65,0,0,0,0,9,1,2,0,0,0,2,1,2,1,2,14,2,0,1,0,0,2,12,4,0,0,0,0,2,0,0,0,2,0,0,0,0,6,13,34,16,2,0.2,0.5230769230769231,0.24615384615384617,0.03076923076923077,Tucson,446,Sher-e-Punjab,-110.95915832,AZ,4.0,853 East Grant Rd,32.2509598946,Tucson,"Restaurants, Salad, Pakistani, Indian, Cocktail Bars, Food, Food Delivery Services, Soup, Halal, Bars, Nightlife",False,False,False,False,False,False,False,False,True,False,False,False,False,False,False,True,False,False,False,False,True,False
aDn90OI3HgzO8A2FO46j9Q,116,9,0,0,0,0,0,0,2,0,0,0,0,0,0,0,0,1,0,0,0,0,0,0,2,0,0,0,0,0,0,0,0,0,0,2,0,0,0,2,4,4,1,0,0.4444444444444444,0.4444444444444444,0.1111111111111111,0.0,Tucson,137,Mister Car Wash,-110.974356,AZ,2.5,8175 N Oracle Rd,32.3549325,Tucson,"Car Wash, Auto Detailing, Oil Change Stations, Automotive, Gas Stations",False,False,True,False,False,False,False,False,False,False,False,False,False,False,False,False,False,False,False,False,False,False
ivXaeYqM6NK7Pg9EDUG8lw,26,9,0,0,0,0,0,1,2,0,0,0,0,0,0,0,0,1,0,0,0,0,0,0,2,1,0,0,0,0,0,0,0,0,0,1,0,0,0,1,5,3,1,0,0.5555555555555556,0.3333333333333333,0.1111111111111111,0.0,Tucson,25,Spanish Trail Dental Group,-110.7883369,AZ,2.0,"9660 E 22nd St, Ste 160",32.2063037,Tucson,"Health & Medical, General Dentistry, Cosmetic Dentists, Oral Surgeons, Dentists",False,False,False,False,False,False,False,False,False,True,False,False,False,False,False,False,False,False,False,False,False,False
3StNEgKAwpCFR1q0urmJrw,477,78,0,0,0,0,13,0,5,1,0,0,0,1,2,0,0,15,3,0,0,0,0,0,13,2,0,0,0,0,1,0,0,0,1,4,0,0,0,17,14,48,15,1,0.1794871794871795,0.6153846153846154,0.19230769230769232,0.01282051282051282,Tucson,594,Raijin Ramen,-110.928393783,AZ,4.0,2995 E Speedway,32.236453242,Tucson,"Noodles, Japanese, Diners, Restaurants, Ramen",False,False,False,False,False,False,False,False,False,False,False,False,False,False,False,False,False,False,False,False,True,False
SKgD0jRWVKk3NqOtSs3VFA,54,7,0,0,0,0,0,0,0,0,0,1,0,0,2,0,0,0,0,0,0,0,0,0,1,1,0,0,0,0,0,0,0,0,0,1,0,0,0,1,5,2,0,0,0.7142857142857143,0.2857142857142857,0.0,0.0,Tucson,55,Jerry Bob's On Broadway,-110.8852364,AZ,3.5,5028 E Broadway Blvd,32.2212055,Tucson,"Restaurants, Breakfast & Brunch, American (Traditional), Diners, Salad",False,False,False,False,False,False,False,False,False,False,False,False,False,False,False,False,False,False,False,False,True,False
K1r1fGmCbrmC_V6Aj22Zew,243,54,0,0,0,0,1,1,2,0,0,1,0,0,6,2,2,7,0,0,0,1,0,0,11,3,0,2,0,2,2,0,0,0,4,3,0,0,0,4,27,20,7,0,0.5,0.37037037037037035,0.12962962962962962,0.0,Tucson,296,Village Bakehouse,-110.973518988,AZ,4.0,7882 N Oracle Rd,32.349513661,Tucson,"Bakeries, Restaurants, Food, Breakfast & Brunch, Sandwiches",False,False,False,False,False,False,False,False,True,False,False,False,False,False,False,False,False,False,False,False,True,False
U3aNQ5DsABPYyJQolsCbJg,446,123,0,0,0,0,9,2,2,0,0,0,4,0,3,4,1,14,3,0,0,1,0,0,35,4,0,0,0,1,2,0,0,0,2,7,0,0,0,29,26,79,14,4,0.21138211382113822,0.6422764227642277,0.11382113821138211,0.032520325203252036,Tucson,589,Charro Steak & Del Rey,-110.9672554,AZ,4.0,188 E Broadway Blvd,32.2210775,Tucson,"Diners, Restaurants, Steakhouses, Mexican",False,False,False,False,False,False,False,False,False,False,False,False,False,False,False,False,False,False,False,False,True,False
pvnv9XvTXwYBpfScd29rrQ,28,10,0,0,0,0,0,0,0,0,0,0,0,0,0,0,1,5,0,0,0,0,0,0,1,1,0,0,0,0,0,0,0,0,0,0,0,0,0,2,1,4,5,0,0.1,0.4,0.5,0.0,Tucson,38,Luna Bella,-110.891514,AZ,3.0,2990 N Swan Rd,32.260726,Tucson,"Caterers, Restaurants, Italian, Event Planning & Services",False,False,False,False,False,False,True,False,False,False,False,False,False,False,False,False,False,False,False,False,True,False
p-vRA4n3m9lxxBSYRl7ZXw,24,6,0,0,0,0,0,0,0,0,0,0,0,0,1,1,0,0,0,2,0,0,0,0,0,0,0,0,0,0,0,0,0,0,0,1,0,0,0,1,5,1,0,0,0.8333333333333334,0.16666666666666666,0.0,0.0,Tucson,34,Broadway Bicycles,-110.815758,AZ,4.5,140 S Sarnoff Dr,32.219947,Tucson,"Sporting Goods, Bike Rentals, Local Services, Bike Repair/Maintenance, Bikes, Shopping, Eyewear & Opticians, Active Life",True,False,False,False,False,False,False,False,False,False,False,False,False,True,False,False,False,False,False,False,False,True
caGpaptBP4BKJkpH5W6cvA,183,22,0,0,0,0,0,0,1,0,0,0,0,0,1,0,0,7,1,0,0,0,0,0,5,1,0,0,0,0,1,0,0,0,1,2,0,0,0,2,6,9,7,0,0.2727272727272727,0.4090909090909091,0.3181818181818182,0.0,Tucson,218,Bing's Boba Tea,-110.943666,AZ,4.0,2510 N Campbell Ave,32.252543,Tucson,"Food, Shaved Ice, Bubble Tea, Juice Bars & Smoothies, Coffee & Tea",False,False,False,False,False,False,False,False,True,False,False,False,False,False,False,False,False,False,False,False,False,False
yip92_y6BgpQdcX486b_RQ,225,21,0,0,0,0,1,0,1,1,0,0,0,0,2,2,0,4,0,0,0,0,0,1,3,2,0,0,0,2,0,0,0,0,1,0,0,0,0,1,10,5,5,1,0.47619047619047616,0.23809523809523808,0.23809523809523808,0.047619047619047616,Tucson,269,Sabino Canyon,-110.809863156,AZ,4.5,5700 N Sabino Canyon Road,32.3223716887,Tucson,"Parks, Active Life, Hiking, Local Flavor, Hotels & Travel, Tours",True,False,False,False,False,False,False,False,False,False,False,True,True,False,False,False,False,False,False,False,False,False
LF2nKVz9o8KIkBPkJkZu9w,35,5,0,0,0,0,0,0,0,0,0,0,0,0,2,0,0,0,0,0,0,0,0,1,2,0,0,0,0,0,0,0,0,0,0,0,0,0,0,0,2,2,1,0,0.4,0.4,0.2,0.0,Tucson,39,PetSmart,-110.891472,AZ,3.5,4740 E Grant Rd,32.2492303,Tucson,"Pet Services, Pet Training, Pet Groomers, Pets, Pet Stores",False,False,False,False,False,False,False,False,False,False,False,False,False,False,False,False,True,False,False,False,False,False
TRtcUUdBfO9e7wBoJLH9NA,46,10,0,0,0,0,1,0,0,0,0,0,0,0,1,0,0,1,0,0,0,0,0,0,2,1,0,0,0,0,0,0,0,0,2,0,0,0,0,2,4,5,1,0,0.4,0.5,0.1,0.0,Tucson,48,Thai Chi Foot Massage,-110.7746873,AZ,5.0,"8140 S Houghton Rd, Ste 110",32.1039658,Tucson,"Beauty & Spas, Massage",False,False,False,True,False,False,False,False,False,False,False,False,False,False,False,False,False,False,False,False,False,False
RSjBOAFBKklF5k3XYEzxjA,43,4,0,0,0,0,0,0,2,0,0,0,0,0,1,0,0,0,0,0,0,0,0,0,0,1,0,0,0,0,0,0,0,0,0,0,0,0,0,0,4,0,0,0,1.0,0.0,0.0,0.0,Tucson,46,Foothills Mall,-111.014800162,AZ,2.5,7401 N La Cholla Blvd,32.3407213608,Tucson,"Shopping, Shopping Centers",False,False,False,False,False,False,False,False,False,False,False,False,False,False,False,False,False,False,False,False,False,True
B10mqANgHvL8gBteo1UhAA,303,97,0,0,0,0,4,0,3,0,0,0,0,0,1,1,2,17,3,0,0,1,1,1,20,8,0,0,1,5,3,0,0,0,3,7,0,0,0,16,31,48,18,0,0.31958762886597936,0.4948453608247423,0.18556701030927836,0.0,Tucson,381,Caruso's,-110.9653331,AZ,3.5,434 N 4th Ave,32.2273367,Tucson,"Restaurants, Italian, Pizza",False,False,False,False,False,False,False,False,False,False,False,False,False,False,False,False,False,False,False,False,True,False
tP8wd-9CrI_RkHK424oifQ,127,16,0,0,0,0,0,0,0,0,0,0,1,0,1,0,0,2,1,0,0,0,0,1,6,0,0,0,1,0,1,0,0,0,0,0,0,0,0,2,2,10,3,1,0.125,0.625,0.1875,0.0625,Tucson,128,Panera Bread,-110.977589565,AZ,3.0,"4362 N Oracle Rd, Ste 100",32.2860688923,Tucson,"Sandwiches, Bakeries, Restaurants, Soup, Salad, Cafes, Food",False,False,False,False,False,False,False,False,True,False,False,False,False,False,False,False,False,False,False,False,True,False
KsTLSwhha1HaeKzYCQ0Q6g,21,0,0,0,0,0,0,0,0,0,0,0,0,0,0,0,0,0,0,0,0,0,0,0,0,0,0,0,0,0,0,0,0,0,0,0,0,0,0,0,0,0,0,0,,,,,Tucson,28,Jiffy Lube,-110.8937309,AZ,4.0,4630 E. Broadway Blvd.,32.2211354,Tucson,"Automotive, Oil Change Stations, Auto Repair",False,False,True,False,False,False,False,False,False,False,False,False,False,False,False,False,False,False,False,False,False,False
ZvN_3pwsnMVQPvtCgl_kkg,16,2,0,0,0,0,0,0,1,0,0,0,0,0,1,0,0,0,0,0,0,0,0,0,0,0,0,0,0,0,0,0,0,0,0,0,0,0,0,0,2,0,0,0,1.0,0.0,0.0,0.0,Tucson,16,Silverbell Dental Care,-111.005249,AZ,4.0,"1370 N Silverbell Rd, Ste 190",32.238994,Tucson,"Health & Medical, Endodontists, General Dentistry, Cosmetic Dentists, Dentists",False,False,False,False,False,False,False,False,False,True,False,False,False,False,False,False,False,False,False,False,False,False
G1Lp17Kv3j9TPLpHbb5bRQ,4,0,0,0,0,0,0,0,0,0,0,0,0,0,0,0,0,0,0,0,0,0,0,0,0,0,0,0,0,0,0,0,0,0,0,0,0,0,0,0,0,0,0,0,,,,,Tucson,5,XO Hair N Lash,-110.933756567,AZ,5.0,2538 E Broadway Blvd,32.2212667586,Tucson,"Hair Salons, Beauty & Spas, Nail Salons, Hair Stylists, Eyelash Service, Nail Technicians",False,False,False,True,False,False,False,False,False,False,False,False,False,False,False,False,False,False,False,False,False,False
wJmyu7W1K9A_gE8Ed4Bc9w,332,66,0,0,0,0,7,2,0,1,0,0,1,0,0,2,0,17,1,0,0,1,0,0,19,1,0,0,0,0,1,0,0,0,1,5,1,0,1,5,13,34,17,2,0.19696969696969696,0.5151515151515151,0.25757575757575757,0.030303030303030304,Tucson,370,Trident Grill,-110.941738,AZ,4.0,"2033 E Speedway Blvd, Ste 101",32.236334,Tucson,"Bars, Seafood, Sports Bars, American (Traditional), Sandwiches, Nightlife, Restaurants",False,False,False,False,False,False,False,False,False,False,False,False,False,False,False,True,False,False,False,False,True,False
b0syqzR1F-EmprvTVs23ng,61,12,0,0,0,0,0,0,1,0,0,0,0,0,1,2,0,1,0,0,0,0,0,0,2,0,1,0,0,1,0,0,0,0,0,1,0,0,1,1,7,3,2,0,0.5833333333333334,0.25,0.16666666666666666,0.0,Tucson,70,Angela's Mexican Food,-111.1269545,AZ,3.5,9190 N Coachline Blvd,32.3735595,Tucson,"Restaurants, Mexican",False,False,False,False,False,False,False,False,False,False,False,False,False,False,False,False,False,False,False,False,True,False
LDkD5R5N7CG9yCD0YSLMZA,71,12,0,0,0,0,2,0,0,0,0,0,0,0,0,0,0,0,0,0,0,0,0,1,4,0,0,0,0,0,0,0,0,0,2,2,0,0,0,1,4,7,1,0,0.3333333333333333,0.5833333333333334,0.08333333333333333,0.0,Tucson,66,Mae's Chinese Restaurant,-110.789219171,AZ,4.0,2475 S Harrison Rd,32.1930837629,Tucson,"Chinese, Restaurants",False,False,False,False,False,False,False,False,False,False,False,False,False,False,False,False,False,False,False,False,True,False
lEOxwatxwXaCi8lPUTFKRQ,90,14,0,0,0,0,0,0,0,0,0,0,0,0,2,0,0,0,0,0,0,1,0,0,6,0,0,0,0,1,0,0,0,0,1,2,0,0,0,1,7,7,0,0,0.5,0.5,0.0,0.0,Tucson,84,Indian Frybread-Manna From Heaven,-110.9894239,AZ,4.5,1118 W St Mary's Rd,32.2298445,Tucson,"Restaurants, Mexican, American (Traditional), Indian, Food",False,False,False,False,False,False,False,False,True,False,False,False,False,False,False,False,False,False,False,False,True,False
L5LW_wN6Z0JV_vKe2jnsBw,16,2,0,0,0,0,0,0,0,0,0,0,0,0,0,0,0,0,0,0,0,0,0,0,0,0,0,0,0,0,0,0,0,0,0,0,0,0,0,2,0,2,0,0,0.0,1.0,0.0,0.0,Tucson,21,Wendy's,-111.013544767,AZ,2.0,7675 N. La Cholla Blvd.,32.3454644454,Tucson,"Fast Food, Burgers, Restaurants",False,False,False,False,False,False,False,False,True,False,False,False,False,False,False,False,False,False,False,False,True,False
a7ZmzKZRhVjKaJBZ7zIGzg,55,21,0,0,0,0,0,1,0,0,0,0,0,1,0,1,0,3,2,0,0,0,0,0,3,2,0,0,0,0,0,0,0,0,0,0,0,0,0,8,4,14,3,0,0.19047619047619047,0.6666666666666666,0.14285714285714285,0.0,Tucson,69,The Dish Bistro,-110.9255968,AZ,4.0,3131 E 1st St,32.2354037,Tucson,"Beer, Wine & Spirits, Arts & Entertainment, Wineries, Restaurants, American (New), Food",False,True,False,False,False,False,False,False,True,False,False,False,False,False,False,False,False,False,False,False,True,False
ic5sXFD3-Ou4Vj49eELSRA,20,3,0,0,0,0,0,0,0,0,0,0,0,0,0,0,0,0,0,0,0,1,0,0,1,1,0,0,0,0,0,0,0,0,0,0,0,0,0,0,2,1,0,0,0.6666666666666666,0.3333333333333333,0.0,0.0,Tucson,24,Rolling Hills Pet Clinic,-110.843525332,AZ,4.5,7010 E Golf Links Rd.,32.1909378679,Tucson,"Pet Adoption, Pets, Arts & Crafts, Shopping, Pet Hospice, Urgent Care, Veterinarians, Pet Services, Art Supplies, Health & Medical",False,False,False,False,False,False,False,False,False,True,False,False,False,False,False,False,True,False,False,False,False,True
RGkyjpmYrnV3OnrpZp9AfA,27,0,0,0,0,0,0,0,0,0,0,0,0,0,0,0,0,0,0,0,0,0,0,0,0,0,0,0,0,0,0,0,0,0,0,0,0,0,0,0,0,0,0,0,,,,,Tucson,28,Crossroads 6,-110.8901599,AZ,3.5,4811 E Grant Rd,32.2517041,Tucson,"Arts & Entertainment, Cinema",False,True,False,False,False,False,False,False,False,False,False,False,False,False,False,False,False,False,False,False,False,False
qAnKc-pentc9UUQvtUYNew,61,17,0,0,0,0,0,0,4,0,0,0,0,0,3,0,0,0,0,0,0,0,0,0,2,0,2,0,0,0,0,0,0,0,0,5,0,0,0,1,12,3,2,0,0.7058823529411765,0.17647058823529413,0.11764705882352941,0.0,Tucson,80,NextCare Urgent Care,-110.7888894,AZ,2.5,"9525 E Old Spanish Trl, Ste 101",32.2083419,Tucson,"Medical Centers, Health & Medical, Urgent Care, Doctors, Hospitals",False,False,False,False,False,False,False,False,False,True,False,False,False,False,False,False,False,False,False,False,False,False
bN7-A2GlVz2Job3frIPy9w,151,30,0,0,0,0,1,0,1,0,0,0,0,0,6,1,0,4,0,0,0,0,0,0,4,2,0,0,0,0,0,0,0,0,0,8,0,0,0,3,18,8,4,0,0.6,0.26666666666666666,0.13333333333333333,0.0,Tucson,173,The Screamery HandCrafted Ice Cream,-110.7741285,AZ,4.5,"50 S Houghton Rd, Ste 120",32.2203189,Tucson,"Ice Cream & Frozen Yogurt, Food",False,False,False,False,False,False,False,False,True,False,False,False,False,False,False,False,False,False,False,False,False,False
-y5vYOsyL4bSFxeOtQtYbg,226,27,0,0,0,0,0,0,0,0,1,0,2,0,2,0,0,2,0,0,0,0,0,1,9,3,0,0,0,0,1,0,0,0,1,2,0,0,0,3,8,13,3,3,0.2962962962962963,0.48148148148148145,0.1111111111111111,0.1111111111111111,Tucson,258,AJ's Fine Foods,-110.931614063,AZ,4.0,2805 E Skyline Dr,32.3244248352,Tucson,"Delis, Bakeries, Food, Grocery, Restaurants",False,False,False,False,False,False,False,False,True,False,False,False,False,False,False,False,False,False,False,False,True,False
BauybYsfqd0y6KDrJ6ZxjQ,64,4,0,0,0,0,1,0,2,0,0,0,0,0,0,0,0,0,0,0,0,0,0,0,0,0,0,0,0,0,0,0,0,0,0,0,0,0,0,1,2,2,0,0,0.5,0.5,0.0,0.0,Tucson,67,Starbucks,-110.8384691,AZ,3.5,"7288 E Broadway Blvd, Ste 150",32.220577,Tucson,"Coffee & Tea, Food",False,False,False,False,False,False,False,False,True,False,False,False,False,False,False,False,False,False,False,False,False,False
ieTkugkUIuDpyopUGi29Dg,19,3,0,0,0,0,0,0,0,0,0,0,0,0,0,0,0,1,0,0,0,0,0,0,1,0,0,0,0,0,0,0,0,0,0,0,0,0,0,1,0,2,1,0,0.0,0.6666666666666666,0.3333333333333333,0.0,Tucson,22,Om Yoga,-110.9776974,AZ,5.0,5961 N Oracle Rd,32.3153532,Tucson,"Yoga, Active Life, Fitness & Instruction",True,False,False,False,False,False,False,False,False,False,False,False,False,False,False,False,False,False,False,False,False,False
LQcGL4hfJAeK6bk2ZdhmXw,251,27,1,0,0,0,2,0,1,0,0,0,0,0,1,2,0,6,1,0,0,0,0,0,6,2,1,1,0,1,0,0,0,0,0,0,0,0,0,2,9,11,7,0,0.3333333333333333,0.4074074074074074,0.25925925925925924,0.0,Tucson,322,Aqui Con El Nene,-110.9950735,AZ,4.5,4415 N Flowing Wells Rd,32.28682634,Tucson,"Fast Food, Restaurants, Mexican, Food Stands, Hot Dogs",False,False,False,False,False,False,False,False,True,False,False,False,False,False,False,False,False,False,False,False,True,False
XyGRDrgCK0z4CiA6nhwEaw,169,40,0,0,0,0,0,0,2,0,0,1,0,0,0,2,0,6,0,0,0,0,0,0,13,3,0,0,0,0,2,0,0,0,1,1,0,0,0,9,10,24,6,0,0.25,0.6,0.15,0.0,Tucson,258,Persian Room Fine Dining,-111.0463201,AZ,4.5,"9290 N Thornydale Rd, Ste 100",32.3750163,Tucson,"Restaurants, Persian/Iranian, Mediterranean",False,False,False,False,False,False,False,False,False,False,False,False,False,False,False,False,False,False,False,False,True,False
bCIZeggW02uPdz2lobSjUA,144,20,0,0,0,0,2,0,0,0,0,0,1,0,0,1,0,9,1,0,0,0,0,0,3,0,0,0,0,0,1,0,0,0,0,0,0,0,0,2,1,9,9,1,0.05,0.45,0.45,0.05,Tucson,143,Good Oak Bar,-110.966578809,AZ,4.5,316 E Congress St,32.2220392159,Tucson,"Pubs, Bars, Wine Bars, Nightlife, Cocktail Bars",False,False,False,False,False,False,False,False,False,False,False,False,False,False,False,True,False,False,False,False,False,False
iXAHb5jmm8tmsGlh-DZNzw,45,11,0,0,0,0,0,0,2,0,0,0,0,0,4,0,0,0,0,0,0,0,0,0,2,1,0,0,0,0,0,1,0,0,1,0,0,0,0,0,8,2,0,1,0.7272727272727273,0.18181818181818182,0.0,0.09090909090909091,Tucson,48,Divinity Beauty Bar,-110.869794,AZ,3.0,5743 E Speedway Blvd,32.236481,Tucson,"Hair Salons, Beauty & Spas, Waxing, Hair Stylists, Hair Removal, Nail Salons",False,False,False,True,False,False,False,False,False,False,False,False,False,False,False,False,False,False,False,False,False,False
xHdekRjTK93GR2AgtvrtgQ,128,23,0,0,0,0,0,0,0,0,0,0,0,0,0,1,0,9,0,0,0,0,0,0,6,1,0,0,0,0,0,0,0,0,0,2,0,0,0,4,4,10,9,0,0.17391304347826086,0.43478260869565216,0.391304347826087,0.0,Tucson,149,Growler's Taphouse,-111.114027958,AZ,3.5,8275 N Silverbell Rd,32.3573574258,Tucson,"Beer, Wine & Spirits, Restaurants, Bars, Sports Bars, American (New), Food, Beer Bar, Music Venues, Nightlife, Arts & Entertainment",False,True,False,False,False,False,False,False,True,False,False,False,False,False,False,True,False,False,False,False,True,False
wghnIlMb_i5U46HMBGx9ig,23,5,0,0,0,0,0,0,0,0,0,0,0,0,0,0,0,0,0,0,0,0,0,0,1,0,0,0,0,0,0,0,0,0,0,2,1,0,0,1,2,3,0,0,0.4,0.6,0.0,0.0,Tucson,23,China Dragon Restaurant,-110.9999851,AZ,3.0,"1625 W Valencia Rd, Ste 101-103",32.1323047,Tucson,"Restaurants, Chinese",False,False,False,False,False,False,False,False,False,False,False,False,False,False,False,False,False,False,False,False,True,False
5pjdRZ9BgW70S5TO2jQY7w,68,7,0,0,0,0,0,0,2,0,0,0,0,0,0,0,0,1,0,0,0,0,0,0,0,1,0,0,0,1,0,0,0,0,0,1,0,0,0,1,5,1,1,0,0.7142857142857143,0.14285714285714285,0.14285714285714285,0.0,Tucson,101,Tucson / Lazydays KOA,-110.9235659,AZ,4.5,5151 South Country Club Rd,32.1578373,Tucson,"Campgrounds, RV Parks, Hotels & Travel",False,False,False,False,False,False,False,False,False,False,False,True,False,False,False,False,False,False,False,False,False,False
xwKYBPO0ByGlkvNcr8FdqQ,195,50,0,0,0,0,2,0,2,0,0,0,0,2,2,1,0,5,3,0,0,0,0,0,14,2,0,0,0,0,0,0,0,0,0,2,0,0,0,15,9,36,5,0,0.18,0.72,0.1,0.0,Tucson,223,Le Rendez-vous,-110.9105444,AZ,4.0,3844 E Fort Lowell Rd,32.2649298,Tucson,"Restaurants, French, Tapas/Small Plates",False,False,False,False,False,False,False,False,False,False,False,False,False,False,False,False,False,False,False,False,True,False
SLreQZjicOqB_7MCfJ8MdQ,147,29,0,0,0,0,0,0,1,0,0,0,0,0,3,1,1,4,1,0,0,0,1,0,7,1,1,0,0,0,1,0,0,0,2,0,0,0,0,5,9,15,5,0,0.3103448275862069,0.5172413793103449,0.1724137931034483,0.0,Tucson,167,Biscuits Country Cafe,-110.842995,AZ,3.5,7026 E Broadway Blvd,32.219735,Tucson,"Restaurants, Breakfast & Brunch, American (Traditional), Cafes",False,False,False,False,False,False,False,False,False,False,False,False,False,False,False,False,False,False,False,False,True,False
fpQEKdtFprof-RJx1MRR9g,46,8,0,0,0,0,2,2,0,0,0,0,0,0,0,0,0,0,0,0,0,0,0,0,3,0,0,0,0,0,0,0,0,0,0,0,0,0,0,1,2,6,0,0,0.25,0.75,0.0,0.0,Tucson,51,Esporta Fitness,-111.0308964,AZ,3.0,2950 W Ina Rd,32.3387515,Tucson,"Yoga, Trainers, Active Life, Sports Clubs, Gyms, Fitness & Instruction",True,False,False,False,False,False,False,False,False,False,False,False,False,False,False,False,False,False,False,False,False,False
iig1y9LryICt5neY6BNRXw,28,1,0,0,0,0,0,0,0,0,0,0,0,0,0,0,0,1,0,0,0,0,0,0,0,0,0,0,0,0,0,0,0,0,0,0,0,0,0,0,0,0,1,0,0.0,0.0,1.0,0.0,Tucson,41,Buddy Heilig & Sons Electric,-110.8850949,AZ,4.5,,32.2540946,Tucson,"Lighting Fixtures & Equipment, Contractors, Home Services, Electricians",False,False,False,False,False,False,False,False,False,False,True,False,False,False,False,False,False,False,False,False,False,False
8RshwVwjfXj6MXDtO9qc4Q,6,3,0,0,0,0,0,0,0,0,0,0,0,0,0,0,0,0,0,0,0,0,0,0,1,0,0,0,0,0,0,0,0,0,0,1,0,0,0,1,1,2,0,0,0.3333333333333333,0.6666666666666666,0.0,0.0,Tucson,8,Legacy the Salon Spa,-110.9369899,AZ,5.0,"Mid-Valley Athletic Club, 140 S Tucson Blvd",32.220303,Tucson,"Skin Care, Day Spas, Hair Salons, Beauty & Spas",False,False,False,True,False,False,False,False,False,False,False,False,False,False,False,False,False,False,False,False,False,False
00wzebOSS8CP4DoIagh8Hw,8,2,0,0,0,0,0,0,0,0,0,0,0,0,0,0,0,0,0,0,0,0,0,0,1,0,0,0,0,0,0,0,0,0,0,0,0,0,0,1,0,2,0,0,0.0,1.0,0.0,0.0,Tucson,8,Anne and Eddie McKechnie - Tucson Real Estate Experts,-110.842851494,AZ,3.5,1610 N Kolb Rd,32.2420076518,Tucson,"Real Estate Agents, Real Estate, Real Estate Services, Home Services",False,False,False,False,False,False,False,False,False,False,True,False,False,False,False,False,False,False,False,False,False,False
bXjnfT69E8DJinX-ifOofA,297,60,0,0,0,0,11,0,3,0,0,1,0,0,4,1,3,16,4,0,0,0,0,0,2,1,0,1,0,0,2,0,0,0,0,1,0,0,0,10,12,32,16,0,0.2,0.5333333333333333,0.26666666666666666,0.0,Tucson,302,Wings Over Broadway,-110.885713,AZ,3.5,5004 E Broadway Blvd,32.221284,Tucson,"Chicken Wings, Restaurants, Sandwiches, Burgers",False,False,False,False,False,False,False,False,False,False,False,False,False,False,False,False,False,False,False,False,True,False
-1MhPXk1FglglUAmuPLIGg,93,15,0,0,0,0,0,1,0,0,0,0,0,0,0,0,1,10,0,0,0,0,0,0,1,0,0,0,0,0,0,0,0,0,0,0,0,0,0,2,1,4,10,0,0.06666666666666667,0.26666666666666666,0.6666666666666666,0.0,Tucson,107,Red Garter Saloon,-110.9252135,AZ,4.0,3143 E Speedway Blvd,32.2363608,Tucson,"Nightlife, Burgers, Sports Bars, Bars, Restaurants, Dive Bars, Soup",False,False,False,False,False,False,False,False,False,False,False,False,False,False,False,True,False,False,False,False,True,False
PsHzOS-Jao5CpRl5LKfvIg,77,12,0,0,0,0,0,0,1,0,0,1,0,0,1,2,0,1,0,0,0,0,0,0,2,0,0,0,1,0,0,0,0,0,0,2,0,0,0,1,8,3,1,0,0.6666666666666666,0.25,0.08333333333333333,0.0,Tucson,90,Fair Wheel Bikes,-110.9543986,AZ,4.0,1110 E 6th St,32.2276142,Tucson,"Bikes, Sporting Goods, Active Life, Bike Rentals, Shopping",True,False,False,False,False,False,False,False,False,False,False,False,False,False,False,False,False,False,False,False,False,True
fitSn2LBLb5OXV7hdl86Kw,71,14,0,0,0,0,3,0,0,0,0,0,0,0,1,0,0,2,1,0,0,0,0,0,6,0,0,0,0,0,0,0,0,0,0,0,0,0,0,1,1,11,2,0,0.07142857142857142,0.7857142857142857,0.14285714285714285,0.0,Tucson,78,Fox In a Box Tucson,-110.957045,AZ,5.0,972 E University Blvd,32.231393,Tucson,"Arts & Entertainment, Active Life, Escape Games",True,True,False,False,False,False,False,False,False,False,False,False,False,False,False,False,False,False,False,False,False,False
IOAsf1Q7LJlPKktx0RRWkQ,29,5,2,0,0,0,0,0,0,0,0,0,0,0,0,0,0,1,0,0,0,0,0,0,0,2,0,0,0,0,0,0,0,0,0,0,0,0,0,0,4,0,1,0,0.8,0.0,0.2,0.0,Tucson,39,River Nails,-110.977177,AZ,3.5,5020 N Oracle Rd,32.298073,Tucson,"Beauty & Spas, Nail Salons",False,False,False,True,False,False,False,False,False,False,False,False,False,False,False,False,False,False,False,False,False,False
avcOkMsnFse9D-DpIimYkA,103,27,0,0,0,0,2,1,1,0,0,0,0,0,1,4,0,4,0,0,0,1,0,0,8,0,0,0,0,0,0,0,0,0,0,0,0,0,0,5,8,15,4,0,0.2962962962962963,0.5555555555555556,0.14814814814814814,0.0,Tucson,98,U-Like Asian Buffet,-110.858348608,AZ,2.5,330 S Wilmot Rd,32.2166906465,Tucson,"Asian Fusion, Buffets, Restaurants",False,False,False,False,False,False,False,False,False,False,False,False,False,False,False,False,False,False,False,False,True,False
lhsQkb5nhf-Kd5OvgB9MNg,158,20,0,0,0,0,3,2,0,0,0,0,1,0,0,2,0,4,0,0,0,0,0,0,3,0,0,0,0,0,0,0,0,0,0,0,0,0,0,5,4,11,4,1,0.2,0.55,0.2,0.05,Tucson,191,Sachiko Sushi,-110.9234427,AZ,3.5,3210 E Valencia Rd,32.1336786,Tucson,"Japanese, Restaurants, Sushi Bars",False,False,False,False,False,False,False,False,False,False,False,False,False,False,False,False,False,False,False,False,True,False
KxrXqdsgT7lcghhNk00z6w,35,10,0,0,0,0,0,0,3,0,0,0,0,0,1,2,0,1,0,0,0,0,0,0,1,0,0,0,0,0,0,0,0,0,0,0,0,0,0,2,6,3,1,0,0.6,0.3,0.1,0.0,Tucson,33,Jerry Bob's,-111.0994,AZ,3.0,"7850 N Silverbell Rd, Ste 156",32.350026,Tucson,"Restaurants, Breakfast & Brunch, American (Traditional)",False,False,False,False,False,False,False,False,False,False,False,False,False,False,False,False,False,False,False,False,True,False
-zXuVI8GB6lT4iU6KStOGg,31,7,0,0,0,0,0,0,0,0,0,0,0,0,3,0,0,0,0,0,0,0,0,0,0,0,1,0,0,0,0,0,0,0,0,1,0,0,0,2,4,2,1,0,0.5714285714285714,0.2857142857142857,0.14285714285714285,0.0,Tucson,42,Buck's Automotive Service Center,-110.960509,AZ,4.0,4360 N 1st Ave,32.2858808,Tucson,"Tires, Body Shops, Auto Repair, Oil Change Stations, Automotive, Transmission Repair",False,False,True,False,False,False,False,False,False,False,False,False,False,False,False,False,False,False,False,False,False,False
pr8RhyScULoKq_p3GzNLEw,19,6,0,0,0,0,0,0,1,0,0,0,0,0,2,0,0,0,0,0,0,0,0,0,1,0,0,0,0,1,0,0,0,0,0,1,0,0,0,0,5,1,0,0,0.8333333333333334,0.16666666666666666,0.0,0.0,Tucson,23,Cold Stone Creamery,-110.7884703,AZ,3.5,9565 E 22nd St,32.2068456,Tucson,"Ice Cream & Frozen Yogurt, Cupcakes, Custom Cakes, Food",False,False,False,False,False,False,False,False,True,False,False,False,False,False,False,False,False,False,False,False,False,False
9oQ0ePOsQffsKeRZEQ0cPQ,19,1,0,0,0,0,0,0,0,0,0,0,0,0,0,0,0,0,0,0,0,0,0,0,0,0,0,0,0,0,0,0,0,0,0,0,0,0,0,1,0,1,0,0,0.0,1.0,0.0,0.0,Tucson,31,Quality Inn Airport,-110.9295651,AZ,2.0,2803 E Valencia Rd,32.1345259,Tucson,"Hotels & Travel, Event Planning & Services, Hotels",False,False,False,False,False,False,True,False,False,False,False,True,False,False,False,False,False,False,False,False,False,False
c1lnt8TTtcxhmeg2R4IKpg,41,6,0,0,0,0,0,0,0,0,0,0,0,0,1,0,0,2,0,0,0,1,0,0,1,1,0,0,0,0,0,0,0,0,0,0,0,0,0,0,3,1,2,0,0.5,0.16666666666666666,0.3333333333333333,0.0,Tucson,42,Luxury Nails,-110.893195,AZ,3.5,4635 E Speedway Blvd,32.237344,Tucson,"Nail Salons, Beauty & Spas",False,False,False,True,False,False,False,False,False,False,False,False,False,False,False,False,False,False,False,False,False,False
vGgAW3kLPjRFQCrndE6l9w,41,20,0,0,0,0,0,3,0,0,0,0,0,0,1,1,0,6,0,0,0,0,0,0,7,0,0,0,0,0,0,0,0,0,0,0,0,0,0,2,5,9,6,0,0.25,0.45,0.3,0.0,Tucson,41,Agustín Brasserie,-110.9856285,AZ,3.5,"100 S Avenida del Convento, Ste 150",32.2201355,Tucson,"French, Sandwiches, Seafood, Restaurants",False,False,False,False,False,False,False,False,False,False,False,False,False,False,False,False,False,False,False,False,True,False
aq26RY75PlTNsviW6wUC9A,87,24,1,0,0,0,0,1,0,0,0,0,1,0,3,1,0,2,0,0,0,0,0,0,6,4,0,0,0,0,1,0,0,0,0,2,0,0,1,1,13,8,2,1,0.5416666666666666,0.3333333333333333,0.08333333333333333,0.041666666666666664,Tucson,109,Hooters,-110.837971475,AZ,3.5,7280 E Broadway Blvd,32.2205997635,Tucson,"Sports Bars, Food, American (Traditional), Nightlife, Bars, Beer, Wine & Spirits, Chicken Wings, Restaurants",False,False,False,False,False,False,False,False,True,False,False,False,False,False,False,True,False,False,False,False,True,False
Y3ZCO17N1_T_Ms1JmswwzA,347,57,1,0,0,1,5,0,3,0,0,0,0,0,1,2,2,5,2,0,0,0,0,0,12,3,0,0,0,2,1,0,0,0,3,5,0,0,0,9,20,31,5,1,0.3508771929824561,0.543859649122807,0.08771929824561403,0.017543859649122806,Tucson,397,Taqueria Pico De Gallo,-110.968540052,AZ,4.0,2618 S 6th Ave,32.1920174772,Tucson,"Mexican, Restaurants",False,False,False,False,False,False,False,False,False,False,False,False,False,False,False,False,False,False,False,False,True,False
rdtMeOwRcXw4mJVxiBQ_IQ,52,4,1,0,0,0,0,0,0,0,0,0,0,0,0,0,0,0,0,0,0,0,0,0,3,0,0,0,0,0,0,0,0,0,0,0,0,0,0,0,1,3,0,0,0.25,0.75,0.0,0.0,Tucson,64,La Mesa Tortillas,-111.043273804,AZ,4.0,3684 W Orange Grove Rd,32.3245749305,Tucson,"Specialty Food, Food, Local Flavor, Restaurants, Mexican, Ethnic Food",False,False,False,False,False,False,False,False,True,False,False,False,True,False,False,False,False,False,False,False,True,False
FJDvhCGIwKuohPOK7JfLuA,61,5,0,0,0,0,0,1,0,0,0,0,0,0,0,1,0,1,0,0,0,0,0,0,0,1,0,0,0,1,0,0,0,0,0,0,0,0,0,0,4,0,1,0,0.8,0.0,0.2,0.0,Tucson,73,Key One,-110.8195292,AZ,5.0,,32.2165669,Tucson,"Home Services, Keys & Locksmiths",False,False,False,False,False,False,False,False,False,False,True,False,False,False,False,False,False,False,False,False,False,False
2vAqYNN86VWXZiy2E96-TQ,9,0,0,0,0,0,0,0,0,0,0,0,0,0,0,0,0,0,0,0,0,0,0,0,0,0,0,0,0,0,0,0,0,0,0,0,0,0,0,0,0,0,0,0,,,,,Tucson,13,Chick-fil-A,-110.9516985,AZ,3.0,"1303 E University Blvd, Ste 149",32.2324455,Tucson,"Event Planning & Services, Caterers, Fast Food, Restaurants, Chicken Shop",False,False,False,False,False,False,True,False,True,False,False,False,False,False,False,False,False,False,False,False,True,False
IT4giLaBtYHSA9nh5FmDwQ,186,19,0,0,0,0,1,0,0,0,0,0,0,0,5,0,0,6,0,0,0,0,0,0,0,1,0,0,1,0,0,0,0,0,4,0,0,0,0,1,11,2,6,0,0.5789473684210527,0.10526315789473684,0.3157894736842105,0.0,Tucson,212,Nails By Yen,-110.92791559,AZ,4.0,"6360 N Campbell Ave, Ste 120",32.3219933997,Tucson,"Waxing, Nail Salons, Massage, Hair Salons, Skin Care, Hair Removal, Beauty & Spas",False,False,False,True,False,False,False,False,False,False,False,False,False,False,False,False,False,False,False,False,False,False
RpMFkxePli-ZG-VJcuOcjA,10,5,0,0,0,0,0,0,0,0,0,0,0,0,0,0,0,3,0,0,0,0,0,0,0,0,0,0,0,0,0,0,0,0,0,1,0,0,0,1,1,1,3,0,0.2,0.2,0.6,0.0,Tucson,18,Meatball Madness Food Truck,-110.9923904,AZ,2.0,,32.2680738,Tucson,"Food Trucks, Food",False,False,False,False,False,False,False,False,True,False,False,False,False,False,False,False,False,False,False,False,False,False
yL79wjr-9wa6X1BtRbiIhQ,5,1,0,0,0,0,0,0,0,0,0,0,0,0,0,0,0,0,0,0,0,0,0,0,1,0,0,0,0,0,0,0,0,0,0,0,0,0,0,0,0,1,0,0,0.0,1.0,0.0,0.0,Tucson,6,RPM Law,-110.9712902,AZ,3.5,"100 N Stone Ave, Ste 303",32.2231013,Tucson,"Lawyers, Divorce & Family Law, DUI Law, Criminal Defense Law, Professional Services, Personal Injury Law, Legal Services",False,False,False,False,False,False,False,False,False,False,False,False,False,False,False,False,False,True,False,False,False,False
GMsGB-hppzbYWyCYIM8xvA,50,9,0,0,0,0,0,0,1,0,0,0,0,0,0,0,0,0,0,0,0,0,0,0,7,0,0,0,0,0,0,0,0,0,0,0,0,0,0,1,1,8,0,0,0.1111111111111111,0.8888888888888888,0.0,0.0,Tucson,50,Chopstix Asian Dining,-111.0952546,AZ,4.5,8225 N Courtney Page Way,32.3565544,Tucson,"Thai, Bars, Chinese, Food, Pubs, Restaurants, Asian Fusion, Nightlife",False,False,False,False,False,False,False,False,True,False,False,False,False,False,False,True,False,False,False,False,True,False
-pgTW7620zWdXMOczX0www,43,5,0,0,0,0,0,0,0,0,0,0,0,0,1,0,0,2,0,0,0,0,0,0,0,1,0,0,0,0,0,0,0,0,0,1,0,0,0,0,3,0,2,0,0.6,0.0,0.4,0.0,Tucson,41,Arizona Stagecoach,-110.923461914,AZ,2.5,7250 S Tucson Blvd,32.0872287083,Tucson,"Tours, Travel Services, Airport Shuttles, Transportation, Taxis, Hotels & Travel",False,False,False,False,False,False,False,False,False,False,False,True,False,False,False,False,False,False,False,False,False,False
LzT90kqhD4qerJUwk8Bs_Q,10,1,0,0,0,0,0,0,0,0,0,0,0,0,0,0,0,0,0,0,0,0,0,0,0,0,0,0,0,1,0,0,0,0,0,0,0,0,0,0,1,0,0,0,1.0,0.0,0.0,0.0,Tucson,13,Yoga Flow,-110.9485049,AZ,5.0,3131 N Cherry Ave,32.264427,Tucson,"Fitness & Instruction, Yoga, Active Life",True,False,False,False,False,False,False,False,False,False,False,False,False,False,False,False,False,False,False,False,False,False
V7AcrIBcBiGT6l5_tub_Jw,25,7,0,0,0,0,0,0,0,0,0,0,0,0,0,0,0,2,1,0,0,0,0,0,1,3,0,0,0,0,0,0,0,0,0,0,0,0,0,0,3,2,2,0,0.42857142857142855,0.2857142857142857,0.2857142857142857,0.0,Tucson,25,Spirit Salon & Day Spa And Mobile,-110.9443591,AZ,4.0,2567 N Campbell Ave,32.2536406,Tucson,"Eyelash Service, Beauty & Spas, Day Spas, Hair Salons",False,False,False,True,False,False,False,False,False,False,False,False,False,False,False,False,False,False,False,False,False,False
SLWuzdFqnoaGgd6iLBrjLw,18,5,0,0,0,0,0,0,0,0,0,1,0,0,0,1,0,1,0,0,0,0,0,0,0,0,0,0,0,0,0,0,0,0,0,0,0,0,0,2,2,2,1,0,0.4,0.4,0.2,0.0,Tucson,20,Tony's Auto Glass,-110.9749498,AZ,4.5,417 W Irvington Rd,32.1628474,Tucson,"Home Services, Auto Glass Services, Automotive, Glass & Mirrors",False,False,True,False,False,False,False,False,False,False,True,False,False,False,False,False,False,False,False,False,False,False
1feuZITxuTrl9mr7V11kwQ,180,21,0,0,0,0,2,2,3,0,0,0,0,0,1,0,0,0,0,0,0,0,0,0,4,0,0,0,0,2,0,0,0,0,1,0,0,0,0,6,9,12,0,0,0.42857142857142855,0.5714285714285714,0.0,0.0,Tucson,217,Frost Gelato,-110.9781154,AZ,4.5,"7131 N Oracle Rd, Ste 101",32.3362875,Tucson,"Coffee & Tea, Desserts, Gelato, Food, Ice Cream & Frozen Yogurt",False,False,False,False,False,False,False,False,True,False,False,False,False,False,False,False,False,False,False,False,False,False
0jwZeXtZ91OaYP1XjId_Uw,55,8,0,0,0,0,0,0,0,0,0,0,1,0,2,0,0,2,0,0,0,0,0,0,1,2,0,0,0,0,0,0,0,0,0,0,0,0,0,0,4,1,2,1,0.5,0.125,0.25,0.125,Tucson,75,PAWS Veterinary Center,-110.966625831,AZ,4.0,300 E River Rd,32.2959967568,Tucson,"Pets, Veterinarians, Mass Media, Radio Stations",False,False,False,False,False,False,False,False,False,False,False,False,False,False,True,False,True,False,False,False,False,False
ok1AHRq6JBNqLmKsgcUQ6w,5,0,0,0,0,0,0,0,0,0,0,0,0,0,0,0,0,0,0,0,0,0,0,0,0,0,0,0,0,0,0,0,0,0,0,0,0,0,0,0,0,0,0,0,,,,,Tucson,9,The UPS Store,-110.825808,AZ,4.5,7739 E Broadway Blvd,32.2224044,Tucson,"Local Services, Shipping Centers, Notaries, Mailbox Centers, Printing Services",False,False,False,False,False,False,False,False,False,False,False,False,False,True,False,False,False,False,False,False,False,False
5LONkt7iDMndF3qjN6ufpw,77,8,0,0,0,0,0,0,1,0,0,0,0,0,1,1,0,2,0,0,0,0,0,0,2,0,0,0,0,0,0,0,0,0,0,0,0,0,0,1,3,3,2,0,0.375,0.375,0.25,0.0,Tucson,100,"La Posada Lodge & Casitas, Ascend Hotel Collection",-110.9769394,AZ,3.0,5900 North Oracle Rd,32.31409,Tucson,"Hotels, Resorts, Event Planning & Services, Hotels & Travel",False,False,False,False,False,False,True,False,False,False,False,True,False,False,False,False,False,False,False,False,False,False
26M-3o8bL-9MWAWKk3yjDQ,47,4,0,0,0,0,0,0,0,0,0,0,0,0,0,0,0,1,0,0,0,0,0,0,2,0,0,0,0,0,0,0,0,0,0,0,0,0,0,1,0,3,1,0,0.0,0.75,0.25,0.0,Tucson,47,Freedom Smoke USA,-111.04259491,AZ,3.0,"3805 W River Rd, Ste 101",32.3553130924,Tucson,"Tobacco Shops, Vape Shops, Shopping",False,False,False,False,False,False,False,False,False,False,False,False,False,False,False,False,False,False,False,False,False,True
AEOd0wRdjeLIXb1usSp9hg,176,32,0,0,0,0,7,0,1,0,0,0,0,1,0,1,0,6,1,0,0,1,0,0,4,1,0,0,0,2,2,0,0,0,1,0,0,0,0,4,7,19,6,0,0.21875,0.59375,0.1875,0.0,Tucson,217,Kung Fu Noodle,-110.9431659,AZ,4.0,"3122 N Campbell Ave, Ste 100",32.2636803,Tucson,"Restaurants, Dim Sum, Chinese, Cantonese, Noodles, Taiwanese, Szechuan",False,False,False,False,False,False,False,False,False,False,False,False,False,False,False,False,False,False,False,False,True,False
rViAhfKLKmwbhTKROM9m0w,249,41,0,0,0,0,4,0,1,0,0,0,0,0,1,0,1,9,2,0,1,0,0,0,8,1,1,1,0,0,0,0,0,0,1,2,0,0,0,8,8,23,10,0,0.1951219512195122,0.5609756097560976,0.24390243902439024,0.0,Tucson,298,Casino Del Sol,-111.086619454,AZ,3.0,5655 W Valencia Rd,32.1311278367,Tucson,"Arts & Entertainment, Hotels & Travel, Casinos, Diners, Restaurants, Mexican, Resorts",False,True,False,False,False,False,False,False,False,False,False,True,False,False,False,False,False,False,False,False,True,False
kmHOQdrkxDxq0Sxyt4bwgw,7,2,0,0,0,0,0,0,0,0,0,0,0,0,0,0,0,0,0,0,0,0,0,0,0,2,0,0,0,0,0,0,0,0,0,0,0,0,0,0,2,0,0,0,1.0,0.0,0.0,0.0,Tucson,7,Hirsh's Shoes,-110.9280542,AZ,3.5,2934 E Broadway Blvd,32.2210496,Tucson,"Shopping, Shoe Stores, Fashion",False,False,False,False,False,False,False,False,False,False,False,False,False,False,False,False,False,False,False,False,False,True
Yaqg1BsxEH3iuunV4mZXNQ,56,30,0,0,0,0,0,0,12,0,0,0,0,0,6,1,0,0,0,0,0,0,0,0,4,0,0,0,2,0,0,0,0,0,0,5,0,0,0,0,26,4,0,0,0.8666666666666667,0.13333333333333333,0.0,0.0,Tucson,57,Chuck E. Cheese,-110.8614,AZ,3.0,6125 E Speedway Blvd,32.23669,Tucson,"Pizza, Arcades, American (Traditional), Arts & Entertainment, Restaurants, Indoor Playcentre, Active Life",True,True,False,False,False,False,False,False,False,False,False,False,False,False,False,False,False,False,False,False,True,False
h0Zxv2SpGNzZGZuJAiS1yA,95,29,1,0,0,0,2,0,0,0,0,0,0,0,1,1,0,2,1,0,0,0,0,0,10,2,0,0,0,1,1,0,0,0,0,1,0,0,1,5,8,19,2,0,0.27586206896551724,0.6551724137931034,0.06896551724137931,0.0,Tucson,95,Jackson Bar + Eatery,-110.803446136,AZ,4.0,8864 E Tanque Verde Rd,32.2574826137,Tucson,"American (New), Sandwiches, Bars, Nightlife, Sports Bars, Restaurants",False,False,False,False,False,False,False,False,False,False,False,False,False,False,False,True,False,False,False,False,True,False
sGy67CpJctjeCWClWqonjA,208,29,0,0,0,0,1,1,0,0,0,0,2,0,2,0,0,7,1,0,0,0,0,0,5,2,0,0,0,1,0,0,0,0,0,3,0,0,0,4,9,11,7,2,0.3103448275862069,0.3793103448275862,0.2413793103448276,0.06896551724137931,Tucson,225,Blake's Lotaburger,-110.930472873,AZ,3.0,2810 E Speedway Blvd,32.2357409936,Tucson,"Hot Dogs, Burgers, Restaurants, Fast Food",False,False,False,False,False,False,False,False,True,False,False,False,False,False,False,False,False,False,False,False,True,False
7MS3yezHIx7EX4u1hlJmCA,58,3,0,0,0,0,1,0,0,0,0,0,0,0,0,0,0,2,0,0,0,0,0,0,0,0,0,0,0,0,0,0,0,0,0,0,0,0,0,0,0,1,2,0,0.0,0.3333333333333333,0.6666666666666666,0.0,Tucson,65,The Men's Room Barbershop,-110.944244385,AZ,4.5,2523 N Campbell Ave,32.2526741028,Tucson,"Beauty & Spas, Barbers",False,False,False,True,False,False,False,False,False,False,False,False,False,False,False,False,False,False,False,False,False,False
-pRU97z3uPU_M7yUf5yzMg,108,22,0,0,0,0,0,0,3,0,0,2,0,0,3,1,1,1,0,0,0,1,0,0,2,2,0,0,0,0,2,0,0,0,1,1,0,0,0,2,14,7,1,0,0.6363636363636364,0.3181818181818182,0.045454545454545456,0.0,Tucson,131,Micha's,-110.9656125,AZ,3.5,2908 S 4th Ave,32.1892611,Tucson,"Event Planning & Services, Breakfast & Brunch, Mexican, Fast Food, Caterers, Restaurants, Buffets",False,False,False,False,False,False,True,False,True,False,False,False,False,False,False,False,False,False,False,False,True,False
KAk07Tbv0UsoY-s7RYfepg,162,15,0,0,0,0,2,0,0,0,0,0,0,0,1,0,0,3,1,0,0,0,0,0,3,1,0,0,0,1,1,0,0,0,0,0,0,0,0,2,3,9,3,0,0.2,0.6,0.2,0.0,Tucson,177,C.I. Chu's Mongolian Barbeque,-110.8955944,AZ,3.5,4540 E Broadway Blvd,32.2210111,Tucson,"Restaurants, Barbeque, Mongolian",False,False,False,False,False,False,False,False,False,False,False,False,False,False,False,False,False,False,False,False,True,False
4uF4fXn7fJkvpzixZdF0bQ,28,3,0,0,0,0,0,0,0,0,0,0,0,0,0,0,0,0,0,0,0,0,0,0,0,1,0,0,0,0,0,0,0,0,1,0,0,0,0,1,2,1,0,0,0.6666666666666666,0.3333333333333333,0.0,0.0,Tucson,35,Fabrics That Go,-110.9443767,AZ,4.5,3105 N Campbell Ave,32.2633864,Tucson,"Arts & Crafts, Shopping, Fabric Stores",False,False,False,False,False,False,False,False,False,False,False,False,False,False,False,False,False,False,False,False,False,True
ygS0u9G_VUeV0nF-iVDRQg,58,12,1,0,0,0,1,0,0,0,0,0,0,0,2,1,0,0,0,0,0,0,0,0,5,0,0,0,0,0,0,0,0,0,2,0,0,0,0,0,6,6,0,0,0.5,0.5,0.0,0.0,Tucson,76,Old Times Kafe,-110.9980488,AZ,4.0,1485 W Prince Rd,32.2718119,Tucson,"Breakfast & Brunch, Restaurants, Diners, American (Traditional)",False,False,False,False,False,False,False,False,False,False,False,False,False,False,False,False,False,False,False,False,True,False
AMN-OTW52_fViTt3vo3dTA,57,8,0,0,0,0,0,0,0,0,0,0,0,0,2,0,0,0,0,0,0,0,0,0,2,1,0,0,0,0,0,0,0,0,0,0,0,0,0,3,3,5,0,0,0.375,0.625,0.0,0.0,Tucson,65,PetSmart,-110.8263277,AZ,3.0,7727 E Broadway Blvd,32.2226033,Tucson,"Pet Training, Pet Stores, Pets, Pet Services, Pet Groomers, Pet Sitting",False,False,False,False,False,False,False,False,False,False,False,False,False,False,False,False,True,False,False,False,False,False
uWc9h19N2G8cR7Vo5blL8Q,74,10,0,0,0,0,0,0,0,0,0,0,0,0,1,0,0,2,0,0,0,0,0,0,2,0,0,0,1,0,0,0,0,0,1,1,0,0,0,2,4,4,2,0,0.4,0.4,0.2,0.0,Tucson,94,Waffle House,-110.9949781,AZ,4.0,1380 W Grant Rd,32.2507186,Tucson,"American (New), Breakfast & Brunch, American (Traditional), Diners, Restaurants",False,False,False,False,False,False,False,False,False,False,False,False,False,False,False,False,False,False,False,False,True,False
VdbnHFYiOZ2r8YjE0roUDw,17,3,0,0,0,0,0,0,0,0,0,0,0,0,0,1,0,0,0,0,0,0,0,0,1,0,0,0,0,0,0,0,0,0,0,1,0,0,0,0,2,1,0,0,0.6666666666666666,0.3333333333333333,0.0,0.0,Tucson,22,Goldies Paint and Body,-110.995393,AZ,5.0,1455 W Glenn St,32.257202,Tucson,"Tires, Auto Glass Services, Oil Change Stations, Body Shops, Auto Repair, Automotive, Transmission Repair",False,False,True,False,False,False,False,False,False,False,False,False,False,False,False,False,False,False,False,False,False,False
IzZSPrxML6TucW-iD1PrNw,41,26,0,0,0,0,0,0,6,0,0,0,0,0,5,0,0,3,0,0,0,0,0,0,0,0,0,0,0,0,0,0,0,0,1,11,0,0,0,0,23,0,3,0,0.8846153846153846,0.0,0.11538461538461539,0.0,Tucson,41,Pump It Up - Tucson,-111.0063076,AZ,3.5,"3248 N Freeway Industrial Lp, Ste 108",32.26709553,Tucson,"Party & Event Planning, Event Planning & Services, Party Supplies, Active Life, Kids Activities",True,False,False,False,False,False,True,False,False,False,False,False,False,False,False,False,False,False,False,False,False,False
uW8L6awmCyjovD9OhWPo7g,117,13,0,0,0,0,1,0,2,0,0,1,0,0,1,0,1,3,0,0,0,0,0,0,2,0,0,0,0,0,0,0,0,0,0,1,0,0,0,1,5,5,3,0,0.38461538461538464,0.38461538461538464,0.23076923076923078,0.0,Tucson,151,Casa Video,-110.929216733,AZ,4.5,2905 E Speedway Blvd,32.2364346302,Tucson,"Books, Mags, Music & Video, Shopping, Videos & Video Game Rental",False,False,False,False,False,False,False,False,False,False,False,False,False,False,False,False,False,False,False,False,False,True
8zo6B_ZylluQcC3Pi8FP3w,40,1,0,0,0,0,0,0,0,0,0,0,0,0,0,0,0,0,0,0,0,0,0,0,0,0,0,0,0,0,0,0,0,0,0,0,0,0,0,1,0,1,0,0,0.0,1.0,0.0,0.0,Tucson,65,Safelite AutoGlass,-110.84141,AZ,4.0,1402 S Kolb Rd,32.204262,Tucson,"Auto Glass Services, Automotive, Windshield Installation & Repair, Body Shops",False,False,True,False,False,False,False,False,False,False,False,False,False,False,False,False,False,False,False,False,False,False
AKFahOtdDQA7NVXZyDajCA,67,7,0,0,0,0,0,0,1,0,0,0,0,0,1,0,0,1,0,0,0,0,0,0,0,1,0,0,0,0,1,0,0,0,0,0,0,0,0,2,3,3,1,0,0.42857142857142855,0.42857142857142855,0.14285714285714285,0.0,Tucson,76,Trader Joe's,-110.8909436,AZ,4.0,4766 E Grant Rd,32.2497812,Tucson,"Flowers & Gifts, Shopping, Specialty Food, Beer, Wine & Spirits, Food, Grocery, Florists",False,False,False,False,False,False,False,False,True,False,False,False,False,False,False,False,False,False,False,False,False,True
qLrTiIPDlnNX6FYTs29rmg,7,5,0,0,0,0,0,0,0,0,0,0,0,0,0,0,1,1,0,0,0,0,1,0,1,0,0,0,0,0,0,0,0,0,0,0,0,0,0,1,1,3,1,0,0.2,0.6,0.2,0.0,Tucson,14,Buddy's Grill,-110.890264,AZ,3.5,4821 E Grant Rd,32.250943,Tucson,"Restaurants, American (Traditional)",False,False,False,False,False,False,False,False,False,False,False,False,False,False,False,False,False,False,False,False,True,False
tUFrWirKiKi_TAnsVWINQQ,22,3,0,0,0,0,0,0,0,0,0,0,0,0,0,1,0,0,0,0,0,0,0,0,0,0,0,0,0,0,0,0,0,0,0,0,0,0,0,2,1,2,0,0,0.3333333333333333,0.6666666666666666,0.0,0.0,Tucson,22,Target,-110.880452,AZ,3.5,5255 E Broadway Blvd,32.223236,Tucson,"Department Stores, Shopping, Fashion, Home & Garden, Electronics, Furniture Stores",False,False,False,False,False,False,False,False,False,False,False,False,False,False,False,False,False,False,False,False,False,True
Lzq-mUgmdLz8mVpb3gGarA,41,4,0,0,0,0,1,0,0,0,0,0,0,0,0,0,0,2,0,0,0,0,0,0,0,0,0,0,0,0,0,0,0,0,0,0,0,0,0,1,0,2,2,0,0.0,0.5,0.5,0.0,Tucson,53,Buffalo Bell,-110.9686162,AZ,4.0,3756 S 6th Ave,32.1784358,Tucson,"Chicken Wings, Burgers, Restaurants, American (Traditional)",False,False,False,False,False,False,False,False,False,False,False,False,False,False,False,False,False,False,False,False,True,False
wqmAnbS2roEnhKHCHygrSw,54,10,1,0,0,0,1,0,0,0,0,0,0,0,0,2,0,1,1,0,0,0,1,0,3,0,0,0,0,0,0,0,0,0,0,0,0,0,0,0,4,5,1,0,0.4,0.5,0.1,0.0,Tucson,56,Club 21,-110.9777207,AZ,4.0,2920 N Oracle Rd,32.2600756,Tucson,"Restaurants, Mexican",False,False,False,False,False,False,False,False,False,False,False,False,False,False,False,False,False,False,False,False,True,False
gp9PRGOKR7qiRsy-vxoYVA,38,8,0,0,0,0,0,0,0,0,0,0,0,0,0,0,0,2,0,0,0,0,0,0,1,1,0,0,0,0,0,0,0,0,0,2,0,0,0,2,3,3,2,0,0.375,0.375,0.25,0.0,Tucson,43,O' My Buns,-110.8659619,AZ,3.5,5870 E Broadway,32.2198815,Tucson,"Bakeries, Food",False,False,False,False,False,False,False,False,True,False,False,False,False,False,False,False,False,False,False,False,False,False
3IjpO8tHrDkltcshN_m-7g,31,4,0,0,0,0,0,0,0,0,0,1,1,0,0,0,0,0,0,0,0,0,0,0,0,0,0,0,0,0,0,0,0,0,0,1,0,0,1,0,3,0,0,1,0.75,0.0,0.0,0.25,Tucson,30,Southwest Airlines,-110.937308,AZ,3.5,7250 S Tucson Blvd,32.1202544,Tucson,"Transportation, Airlines, Hotels & Travel",False,False,False,False,False,False,False,False,False,False,False,True,False,False,False,False,False,False,False,False,False,False
b7OFFdLhvJn5mK5yLu-T6A,3,4,0,0,0,0,0,1,0,0,0,0,0,0,0,1,0,0,0,0,0,0,0,0,1,0,0,0,0,0,0,0,0,0,0,0,0,0,0,1,2,2,0,0,0.5,0.5,0.0,0.0,Tucson,5,Casas Adobe Physicians,-111.010786,AZ,3.5,"5880 N La Cholla Blvd, Ste 150",32.3136659,Tucson,"Family Practice, Health & Medical, Doctors",False,False,False,False,False,False,False,False,False,True,False,False,False,False,False,False,False,False,False,False,False,False
qAsPmtzmj3EAUjPSu-dqug,72,16,0,0,0,0,1,0,0,0,0,0,1,1,0,0,1,7,0,0,0,0,0,0,2,0,0,0,0,0,1,0,0,0,0,1,0,0,0,1,1,7,7,1,0.0625,0.4375,0.4375,0.0625,Tucson,83,The Depot,-110.9175529,AZ,3.5,3501 E Fort Lowell Rd,32.265486,Tucson,"Nightlife, Sports Bars, Bars, Pool Halls, Karaoke",False,False,False,False,False,False,False,False,False,False,False,False,False,False,False,True,False,False,False,False,False,False
aIc2fDKD3MxfyGTEsqpXig,15,4,0,0,0,0,0,0,0,0,0,0,0,0,0,0,0,1,0,0,0,0,0,0,1,0,1,0,0,0,0,0,0,0,0,1,0,0,0,0,1,1,2,0,0.25,0.25,0.5,0.0,Tucson,16,JumpMaxx,-110.8332661,AZ,2.5,7430 E 29th St,32.2001849,Tucson,"Party Equipment Rentals, Party Supplies, Event Planning & Services, Active Life, Playgrounds",True,False,False,False,False,False,True,False,False,False,False,False,False,False,False,False,False,False,False,False,False,False
JZTjsww_tdYvE0jaHGz24g,21,8,0,0,0,0,0,0,1,0,0,0,0,0,4,0,0,0,0,0,0,0,0,0,0,0,0,0,0,0,0,0,0,0,0,3,0,0,0,0,8,0,0,0,1.0,0.0,0.0,0.0,Tucson,21,Jump Family Entertainment Center,-110.9214225,AZ,3.5,"5120 S Julian Dr, Ste 108",32.1609184,Tucson,"Active Life, Kids Activities",True,False,False,False,False,False,False,False,False,False,False,False,False,False,False,False,False,False,False,False,False,False
Ei5HBqe012ImhqEr2ZH2gg,260,31,0,0,0,0,2,0,1,0,0,0,1,0,2,0,0,1,3,0,0,0,0,0,10,0,0,0,0,0,1,0,0,0,0,4,0,0,0,6,7,22,1,1,0.22580645161290322,0.7096774193548387,0.03225806451612903,0.03225806451612903,Tucson,374,Fiamme Pizza,-110.8919704,AZ,4.5,4706 E Sunrise Dr,32.3066525,Tucson,"Italian, Restaurants, Food Stands, Farmers Market, Food Trucks, Caterers, Pizza, Event Planning & Services, Food",False,False,False,False,False,False,True,False,True,False,False,False,False,False,False,False,False,False,False,False,True,False
hLEzfH2aE8UyMm_cnS-3zQ,16,0,0,0,0,0,0,0,0,0,0,0,0,0,0,0,0,0,0,0,0,0,0,0,0,0,0,0,0,0,0,0,0,0,0,0,0,0,0,0,0,0,0,0,,,,,Tucson,18,Kohl's,-111.0900053,AZ,4.0,5850 W Arizona Pavilions Dr,32.3546425,Tucson,"Jewelry, Shopping, Women's Clothing, Men's Clothing, Shoe Stores, Cosmetics & Beauty Supply, Department Stores, Fashion, Beauty & Spas",False,False,False,True,False,False,False,False,False,False,False,False,False,False,False,False,False,False,False,False,False,True
OMzYjyFo4Z2NAwiHLd10Kw,11,13,0,0,0,0,0,0,5,0,0,0,0,0,1,0,0,1,0,0,0,0,0,0,1,0,0,0,0,0,0,0,0,0,0,4,0,0,0,1,10,2,1,0,0.7692307692307693,0.15384615384615385,0.07692307692307693,0.0,Tucson,16,Sunshine Swim School,-110.8112056,AZ,3.0,8484 E Speedway Blvd,32.2350032,Tucson,"Swimming Lessons/Schools, Active Life, Education, Specialty Schools, Fitness & Instruction",True,False,False,False,False,True,False,False,False,False,False,False,False,False,False,False,False,False,False,False,False,False
fJUQ2hB4PfreN9UlNZl4_w,24,4,0,0,0,0,1,0,0,0,0,0,0,0,0,0,0,1,0,0,0,0,0,0,0,0,0,0,0,0,0,0,0,0,0,2,0,0,0,0,2,1,1,0,0.5,0.25,0.25,0.0,Tucson,24,Desert Dream Ice Cream,-110.9436204,AZ,4.5,1058 N Campbell Ave,32.2352307,Tucson,"Desserts, Ice Cream & Frozen Yogurt, Food",False,False,False,False,False,False,False,False,True,False,False,False,False,False,False,False,False,False,False,False,False,False
NesMl0Tiq1FsPoX2LzHkNg,103,10,0,0,0,0,3,1,0,0,0,0,0,0,0,0,0,2,0,0,0,0,0,0,2,0,0,0,0,0,1,0,0,0,0,0,0,0,0,1,1,7,2,0,0.1,0.7,0.2,0.0,Tucson,100,PJ Subs,-110.9351327,AZ,4.0,2500 E 6th St,32.2275777,Tucson,"Cheesesteaks, Chicken Wings, Food, Beer, Wine & Spirits, Restaurants, Sandwiches",False,False,False,False,False,False,False,False,True,False,False,False,False,False,False,False,False,False,False,False,True,False
TTl2V6mG7IAMi_JK16bgow,25,1,0,0,0,0,0,0,0,0,0,0,0,0,1,0,0,0,0,0,0,0,0,0,0,0,0,0,0,0,0,0,0,0,0,0,0,0,0,0,1,0,0,0,1.0,0.0,0.0,0.0,Tucson,24,Teavana,-110.929962996,AZ,3.0,"2905 E Skyline Dr, Ste 148",32.3250262516,Tucson,"Coffee & Tea, Food",False,False,False,False,False,False,False,False,True,False,False,False,False,False,False,False,False,False,False,False,False,False
KJK4cCS1Toi7qzpOxcvhFg,80,5,0,0,0,0,1,0,0,0,0,0,0,0,0,0,0,0,0,0,0,0,0,0,1,0,0,0,1,0,0,0,0,0,0,0,0,0,0,2,1,4,0,0,0.2,0.8,0.0,0.0,Tucson,88,La Encantada,-110.9299968,AZ,4.0,2905 E Skyline Dr,32.3247425,Tucson,"Shopping Centers, Shopping",False,False,False,False,False,False,False,False,False,False,False,False,False,False,False,False,False,False,False,False,False,True
WXX2EtysiTsZd7pzijpb0g,61,16,0,0,0,0,0,0,1,0,0,0,1,0,1,0,0,2,0,0,0,0,0,0,4,0,0,0,0,0,0,0,0,0,0,4,0,0,0,3,6,7,2,1,0.375,0.4375,0.125,0.0625,Tucson,70,Finnegan's Pub,-110.9341191,AZ,3.0,7051 S Tucson Blvd,32.1235564,Tucson,"Nightlife, Pubs, Restaurants, American (New), Bars, Irish",False,False,False,False,False,False,False,False,False,False,False,False,False,False,False,True,False,False,False,False,True,False
vdCQoE2il097-vc_gIQzYw,42,3,0,0,0,0,0,0,0,0,0,0,0,0,0,1,0,0,0,0,0,0,0,0,2,0,0,0,0,0,0,0,0,0,0,0,0,0,0,0,1,2,0,0,0.3333333333333333,0.6666666666666666,0.0,0.0,Tucson,45,Bruegger's Bagels,-110.971462727,AZ,3.5,1 West Congress Street,32.2220281,Tucson,"Food, Bagels, Restaurants, Sandwiches, Breakfast & Brunch",False,False,False,False,False,False,False,False,True,False,False,False,False,False,False,False,False,False,False,False,True,False
ujscft15GkpvxcqT4FoAOg,18,1,0,0,0,0,0,0,0,0,0,0,0,0,0,0,0,0,0,0,0,0,0,0,1,0,0,0,0,0,0,0,0,0,0,0,0,0,0,0,0,1,0,0,0.0,1.0,0.0,0.0,Tucson,22,Taco Bell,-110.851171,AZ,2.0,6616 E Grant Rd,32.249197,Tucson,"Food, Restaurants, Breakfast & Brunch, Fast Food, Tex-Mex, Mexican, Tacos",False,False,False,False,False,False,False,False,True,False,False,False,False,False,False,False,False,False,False,False,True,False
uqA2KDjulHpvls2UoJI26w,8,1,0,0,0,0,0,0,0,0,0,0,0,0,0,0,0,0,0,0,0,0,0,0,1,0,0,0,0,0,0,0,0,0,0,0,0,0,0,0,0,1,0,0,0.0,1.0,0.0,0.0,Tucson,10,CVS Pharmacy,-110.910336141,AZ,2.0,615 North Alvernon Way,32.2293413396,Tucson,"Health & Medical, Shopping, Convenience Stores, Drugstores, Pharmacy, Food",False,False,False,False,False,False,False,False,True,True,False,False,False,False,False,False,False,False,False,False,False,True
sa-OzUFCgU_dydphmYOVOQ,35,6,0,0,0,0,0,0,0,0,0,0,0,0,0,0,0,3,0,0,0,0,0,0,0,2,0,0,0,0,0,0,0,0,0,0,0,0,0,1,2,1,3,0,0.3333333333333333,0.16666666666666666,0.5,0.0,Tucson,38,Black Rose Tattooers,-110.9657358,AZ,4.5,421 N 4th Ave,32.2269835,Tucson,"Piercing, Beauty & Spas, Tattoo",False,False,False,True,False,False,False,False,False,False,False,False,False,False,False,False,False,False,False,False,False,False
uEWsfftrJ7ukPv1xyMVcrg,46,5,0,0,0,0,2,0,0,0,0,0,0,0,0,0,0,2,0,0,0,0,0,0,0,0,0,0,0,0,1,0,0,0,0,0,0,0,0,0,0,3,2,0,0.0,0.6,0.4,0.0,Tucson,56,Savers,-110.8675292,AZ,4.0,5845 E Broadway Blvd,32.2222453,Tucson,"Thrift Stores, Donation Center, Shopping, Local Services",False,False,False,False,False,False,False,False,False,False,False,False,False,True,False,False,False,False,False,False,False,True
x83J5JvK8BxYd3vs9gAPqQ,43,6,0,0,0,0,2,0,0,0,0,0,0,0,0,0,0,3,0,0,0,0,0,0,0,0,0,0,0,0,0,0,0,0,1,0,0,0,0,0,1,2,3,0,0.16666666666666666,0.3333333333333333,0.5,0.0,Tucson,41,Unplugged,-110.969274044,AZ,4.5,118 E Congress St,32.2219630971,Tucson,"Restaurants, Bars, Tapas Bars, Nightlife, Wine Bars",False,False,False,False,False,False,False,False,False,False,False,False,False,False,False,True,False,False,False,False,True,False
1RVzvMS3Xjdfe-eUznJQdw,20,6,0,0,0,0,0,0,0,0,0,0,0,0,0,1,0,0,0,0,0,1,0,0,0,1,1,0,0,2,0,0,0,0,0,0,0,0,0,0,5,0,1,0,0.8333333333333334,0.0,0.16666666666666666,0.0,Tucson,22,Excel Movers,-110.8850949,AZ,4.0,,32.2107257,Tucson,"Movers, Home Services",False,False,False,False,False,False,False,False,False,False,True,False,False,False,False,False,False,False,False,False,False,False
KFfmCw3ODnR_plV8lj_O4w,64,0,0,0,0,0,0,0,0,0,0,0,0,0,0,0,0,0,0,0,0,0,0,0,0,0,0,0,0,0,0,0,0,0,0,0,0,0,0,0,0,0,0,0,,,,,Tucson,66,Session Yoga,-110.927593,AZ,4.5,123 S Eastbourne Ave,32.221215,Tucson,"Health & Medical, Yoga, Beauty & Spas, Active Life, Fitness & Instruction",True,False,False,True,False,False,False,False,False,True,False,False,False,False,False,False,False,False,False,False,False,False
BHBS953rVL7u-bLp0J__eg,8,2,0,0,0,0,0,0,0,0,0,0,0,0,1,0,0,0,0,0,0,0,0,0,1,0,0,0,0,0,0,0,0,0,0,0,0,0,0,0,1,1,0,0,0.5,0.5,0.0,0.0,Tucson,8,Shaffer Dry Cleaning & Laundry,-110.8341741,AZ,2.5,7402 E Broadway Blvd,32.2206,Tucson,"Sewing & Alterations, Dry Cleaning, Local Services, Shoe Repair, Dry Cleaning & Laundry, Laundry Services",False,False,False,False,False,False,False,False,False,False,False,False,False,True,False,False,False,False,False,False,False,False
R7t3bFG3EoDM0szXDmp09w,10,1,0,0,0,0,0,0,0,0,0,0,0,0,1,0,0,0,0,0,0,0,0,0,0,0,0,0,0,0,0,0,0,0,0,0,0,0,0,0,1,0,0,0,1.0,0.0,0.0,0.0,Tucson,15,Casas Adobes Oral & Maxillofacial Surgery,-111.0131145,AZ,4.5,6471 N La Cholla Blvd,32.3248507,Tucson,"Doctors, Oral Surgeons, Health & Medical, Cosmetic Dentists, Dentists, General Dentistry, Cosmetic Surgeons",False,False,False,False,False,False,False,False,False,True,False,False,False,False,False,False,False,False,False,False,False,False
rPKaAsWOJgWvde3aqU5mLQ,5,0,0,0,0,0,0,0,0,0,0,0,0,0,0,0,0,0,0,0,0,0,0,0,0,0,0,0,0,0,0,0,0,0,0,0,0,0,0,0,0,0,0,0,,,,,Tucson,7,Sun-Rise Baking Company,-110.9604898,AZ,4.0,"3650 N 1st Ave, Ste 160",32.2729604,Tucson,"Restaurants, Bakeries, Food",False,False,False,False,False,False,False,False,True,False,False,False,False,False,False,False,False,False,False,False,True,False
pvQqt8VOEZu8lOHbl3hkGw,17,2,0,0,0,0,0,0,0,0,0,0,0,0,0,0,0,0,0,0,0,0,0,0,1,0,0,0,0,0,0,0,0,0,0,0,0,0,0,1,0,2,0,0,0.0,1.0,0.0,0.0,Tucson,22,Lucky Wishbone,-110.9664275,AZ,4.0,5220 S Nogales Hwy,32.1573716,Tucson,"Food, Fast Food, Restaurants",False,False,False,False,False,False,False,False,True,False,False,False,False,False,False,False,False,False,False,False,True,False
nNyXIv9FbnVBuPu78Lt9DA,10,8,0,0,0,0,0,0,0,0,0,0,0,0,0,2,0,0,0,0,0,0,0,0,2,2,0,0,0,0,1,0,0,0,0,1,0,0,0,0,5,3,0,0,0.625,0.375,0.0,0.0,Tucson,17,Edible Arrangements,-110.8604715,AZ,4.0,6176 East Speedway Blvd,32.2352189,Tucson,"Shopping, Flowers & Gifts, Food, Gift Shops, Chocolatiers & Shops, Specialty Food, Florists",False,False,False,False,False,False,False,False,True,False,False,False,False,False,False,False,False,False,False,False,False,True
q18WLK-9HANb7gYGGHIIMw,31,3,0,0,0,0,0,0,0,0,0,0,0,0,0,0,0,1,0,0,0,0,0,0,0,1,0,0,0,0,1,0,0,0,0,0,0,0,0,0,1,1,1,0,0.3333333333333333,0.3333333333333333,0.3333333333333333,0.0,Tucson,32,Ricuras de Venezuela,-110.9715269,AZ,4.0,,32.2147915,Tucson,"Food, Food Trucks, Restaurants, Venezuelan, Latin American",False,False,False,False,False,False,False,False,True,False,False,False,False,False,False,False,False,False,False,False,True,False
A9xpo_CazHqD9zLBp6hsxA,6,2,0,0,0,0,0,0,0,0,1,0,0,0,0,0,0,0,0,0,0,0,0,0,1,0,0,0,0,0,0,0,0,0,0,0,0,0,0,0,0,1,0,1,0.0,0.5,0.0,0.5,Tucson,6,Modern Elixir,-110.9762571,AZ,3.5,"6818 N Oracle, Ste 414",32.3309255,Tucson,"Naturopathic/Holistic, Health & Medical, Doctors, Family Practice, Beauty & Spas, Medical Spas, Acupuncture",False,False,False,True,False,False,False,False,False,True,False,False,False,False,False,False,False,False,False,False,False,False
Nph82hv9yc8teo_U3gmXTw,13,1,0,0,0,0,0,0,1,0,0,0,0,0,0,0,0,0,0,0,0,0,0,0,0,0,0,0,0,0,0,0,0,0,0,0,0,0,0,0,1,0,0,0,1.0,0.0,0.0,0.0,Tucson,14,Discount Mattress Barn,-110.9273207,AZ,4.5,3030 E Grant Rd,32.250149,Tucson,"Home & Garden, Mattresses, Furniture Stores, Shopping",False,False,False,False,False,False,False,False,False,False,False,False,False,False,False,False,False,False,False,False,False,True
lS1dmSXpAtQqT04eRm9kiA,205,23,0,0,0,0,2,1,1,0,0,0,0,0,1,0,0,11,0,0,0,0,0,0,4,0,0,0,0,0,0,0,0,0,1,1,0,0,0,1,5,7,11,0,0.21739130434782608,0.30434782608695654,0.4782608695652174,0.0,Tucson,271,No Anchovies,-110.9584407,AZ,3.5,870 E University Blvd,32.2314107,Tucson,"Restaurants, Sports Bars, Nightlife, Salad, Bars, Sandwiches, Pizza, Chicken Wings",False,False,False,False,False,False,False,False,False,False,False,False,False,False,False,True,False,False,False,False,True,False
2cpdYwMOeKQtiMDvm39nKg,125,37,0,0,0,0,2,0,2,0,0,0,0,0,1,4,3,4,0,0,0,0,0,0,6,2,0,0,0,0,0,0,0,0,0,3,1,0,0,9,12,21,4,0,0.32432432432432434,0.5675675675675675,0.10810810810810811,0.0,Tucson,122,Cody's Beef 'n Beans,-110.931879,AZ,3.5,2708 E Fort Lowell Rd,32.264711,Tucson,"Burgers, Steakhouses, Restaurants, German, American (Traditional)",False,False,False,False,False,False,False,False,False,False,False,False,False,False,False,False,False,False,False,False,True,False
AIjfvtKIpyB2Lam5cEA7Fw,36,1,0,0,0,0,0,0,0,0,0,0,0,0,0,0,0,0,0,0,0,0,0,0,1,0,0,0,0,0,0,0,0,0,0,0,0,0,0,0,0,1,0,0,0.0,1.0,0.0,0.0,Tucson,39,Ambiance Pool Service & Supplies,-111.0086903,AZ,4.0,"1951 W Grant Rd, Ste 130",32.2499295,Tucson,"Shopping, Pool & Hot Tub Service, Hot Tub & Pool, Home Services, Pool Cleaners, Home & Garden",False,False,False,False,False,False,False,False,False,False,True,False,False,False,False,False,False,False,False,False,False,True
KNalXv3NN-ZG6v4lgrIFDg,5,2,0,0,0,0,0,0,0,0,0,0,0,0,0,0,0,0,0,0,0,0,0,0,0,0,1,0,0,1,0,0,0,0,0,0,0,0,0,0,1,0,1,0,0.5,0.0,0.5,0.0,Tucson,5,Sos Exterminating,-110.843953,AZ,2.0,7009 E 21st St,32.2082868,Tucson,"Pest Control, Local Services",False,False,False,False,False,False,False,False,False,False,False,False,False,True,False,False,False,False,False,False,False,False
PPcKiRY_-QoOx9JxPK01VQ,59,3,0,0,0,0,0,0,0,0,0,0,0,0,1,0,0,0,1,0,0,0,0,0,1,0,0,0,0,0,0,0,0,0,0,0,0,0,0,0,1,2,0,0,0.3333333333333333,0.6666666666666666,0.0,0.0,Tucson,61,Century Gateway 12,-110.8393662,AZ,4.0,770 N Kolb Rd,32.2307021,Tucson,"Arts & Entertainment, Cinema, Event Planning & Services, Venues & Event Spaces",False,True,False,False,False,False,True,False,False,False,False,False,False,False,False,False,False,False,False,False,False,False
V8A0JxgdVetmPKliyVyZgA,24,0,0,0,0,0,0,0,0,0,0,0,0,0,0,0,0,0,0,0,0,0,0,0,0,0,0,0,0,0,0,0,0,0,0,0,0,0,0,0,0,0,0,0,,,,,Tucson,28,Panache Hair & Nails,-110.8931512,AZ,4.0,"1661 N Swan Rd, Ste 158",32.2431794,Tucson,"Nail Salons, Beauty & Spas, Hair Salons",False,False,False,True,False,False,False,False,False,False,False,False,False,False,False,False,False,False,False,False,False,False
8pLHRpAe6YPL0FVOKkyVKw,95,16,1,0,0,0,0,1,0,0,0,0,0,0,1,1,0,3,0,0,0,0,0,0,3,1,0,0,0,2,0,0,0,0,0,0,0,0,1,2,8,5,3,0,0.5,0.3125,0.1875,0.0,Tucson,126,VCA Valley Animal Hospital and Emergency Center,-110.885422742,AZ,3.5,4984 E 22nd St,32.2065377762,Tucson,"Pet Groomers, Veterinarians, Pet Services, Emergency Pet Hospital, Pet Sitting, Pets",False,False,False,False,False,False,False,False,False,False,False,False,False,False,False,False,True,False,False,False,False,False
7-cD0S7vJlUOuTpF2vQLOQ,9,0,0,0,0,0,0,0,0,0,0,0,0,0,0,0,0,0,0,0,0,0,0,0,0,0,0,0,0,0,0,0,0,0,0,0,0,0,0,0,0,0,0,0,,,,,Tucson,11,Little Caesars Pizza,-110.9630046,AZ,1.5,"515 E Grant #171, Ste 171",32.2510235,Tucson,"Fast Food, Pizza, Restaurants",False,False,False,False,False,False,False,False,True,False,False,False,False,False,False,False,False,False,False,False,True,False
Bey6zC3Q6D1PTzqzPU32VA,33,4,0,0,0,0,0,0,0,0,0,0,0,0,1,0,0,0,0,0,0,0,0,0,1,0,0,0,0,0,0,0,0,0,0,0,0,0,0,2,1,3,0,0,0.25,0.75,0.0,0.0,Tucson,35,Legends Bar And Grill,-111.025655858,AZ,3.5,2727 West Club Dr,32.3576668596,Tucson,"American (Traditional), Restaurants",False,False,False,False,False,False,False,False,False,False,False,False,False,False,False,False,False,False,False,False,True,False
owcK-gN5c0JXH3X8cBj5YQ,20,0,0,0,0,0,0,0,0,0,0,0,0,0,0,0,0,0,0,0,0,0,0,0,0,0,0,0,0,0,0,0,0,0,0,0,0,0,0,0,0,0,0,0,,,,,Tucson,20,Peach Properties,-110.9702678,AZ,2.0,"44 E Broadway Blvd, Ste 300",32.2208097,Tucson,"Real Estate, Home Services, Property Management",False,False,False,False,False,False,False,False,False,False,True,False,False,False,False,False,False,False,False,False,False,False
xSTd8vgQbBnepyYaq4KeGQ,9,0,0,0,0,0,0,0,0,0,0,0,0,0,0,0,0,0,0,0,0,0,0,0,0,0,0,0,0,0,0,0,0,0,0,0,0,0,0,0,0,0,0,0,,,,,Tucson,10,El Rio Golf Course,-110.997257,AZ,4.0,1400 W Speedway Blvd,32.235888,Tucson,"Active Life, Golf",True,False,False,False,False,False,False,False,False,False,False,False,False,False,False,False,False,False,False,False,False,False
0z-pNv_92L_-LiYV_XlcSw,80,18,0,0,0,0,3,0,0,0,0,0,0,0,3,0,0,4,0,0,0,0,0,0,6,1,0,0,0,0,0,0,0,0,1,0,0,0,0,0,5,9,4,0,0.2777777777777778,0.5,0.2222222222222222,0.0,Tucson,90,Brawley's Restaurant,-110.824381784,AZ,3.5,7848 E Wrightstown Rd,32.2502273843,Tucson,"Food, Do-It-Yourself Food, Breakfast & Brunch, Restaurants",False,False,False,False,False,False,False,False,True,False,False,False,False,False,False,False,False,False,False,False,True,False
OkguWi_yMeeEYUVXXyaHOg,11,2,0,0,0,0,1,0,0,0,0,0,0,0,0,0,0,0,0,0,0,0,0,0,0,0,0,0,0,0,0,0,0,0,0,1,0,0,0,0,1,1,0,0,0.5,0.5,0.0,0.0,Tucson,14,Quality Ornamental Iron,-110.9923904,AZ,4.5,,32.1922127,Tucson,"Local Services, Contractors, Home Services, Fences & Gates, Metal Fabricators",False,False,False,False,False,False,False,False,False,False,True,False,False,True,False,False,False,False,False,False,False,False
9C2rpb56aQvW0ViZHK9sPw,42,9,0,0,0,0,1,0,0,0,0,0,0,0,1,1,0,1,2,0,0,0,0,0,1,0,0,0,0,0,0,0,0,0,1,1,0,0,0,0,4,4,1,0,0.4444444444444444,0.4444444444444444,0.1111111111111111,0.0,Tucson,56,Home Plate Sports Pub,-110.887843,AZ,3.5,4880 E 22nd St,32.206315,Tucson,"Bars, Restaurants, Sports Bars, Nightlife",False,False,False,False,False,False,False,False,False,False,False,False,False,False,False,True,False,False,False,False,True,False
qoJH8TCkmXor8BXOcgD5zQ,24,4,0,0,0,0,0,0,0,0,0,0,0,0,0,0,0,1,1,0,0,0,0,0,1,0,0,0,0,0,0,0,0,0,0,0,0,0,0,1,0,3,1,0,0.0,0.75,0.25,0.0,Tucson,29,Chicago Bar,-110.8652107,AZ,4.0,5954 E Speedway Blvd,32.2357913,Tucson,"Nightlife, Bars, Dive Bars, Jazz & Blues, Music Venues, Cocktail Bars, Karaoke, Arts & Entertainment",False,True,False,False,False,False,False,False,False,False,False,False,False,False,False,True,False,False,False,False,False,False
iuv_kT2zc_-4KFdUPFd9Xg,14,2,0,0,0,0,0,0,0,0,0,0,0,0,0,0,0,0,0,0,0,0,0,0,0,1,0,0,0,0,0,0,0,0,0,0,0,0,0,1,1,1,0,0,0.5,0.5,0.0,0.0,Tucson,16,Michaels,-110.989049,AZ,2.0,1161 W Irvington Rd,32.163254,Tucson,"Hobby Shops, Arts & Crafts, Home Decor, Shopping, Knitting Supplies, Art Supplies, Home & Garden",False,False,False,False,False,False,False,False,False,False,False,False,False,False,False,False,False,False,False,False,False,True
s5tg9sBfO3FhJyvivXe15A,10,0,0,0,0,0,0,0,0,0,0,0,0,0,0,0,0,0,0,0,0,0,0,0,0,0,0,0,0,0,0,0,0,0,0,0,0,0,0,0,0,0,0,0,,,,,Tucson,7,Bank of Tucson,-110.9742745,AZ,2.5,6400 N Oracle Rd,32.3232104,Tucson,"Banks & Credit Unions, Financial Services",False,False,False,False,False,False,False,True,False,False,False,False,False,False,False,False,False,False,False,False,False,False
STNGwWzdwhflVV1QRyg18g,27,5,0,0,0,0,0,0,0,0,0,0,0,0,1,0,0,1,0,0,0,0,0,0,1,0,0,0,1,0,1,0,0,0,0,0,0,0,0,0,2,2,1,0,0.4,0.4,0.2,0.0,Tucson,26,Great American Steakburger,-110.799409979,AZ,3.5,8995 E Tanque Verde Rd,32.2593958692,Tucson,"Restaurants, Nightlife, Bars, Steakhouses, Burgers",False,False,False,False,False,False,False,False,False,False,False,False,False,False,False,True,False,False,False,False,True,False
L5iPk3oEYcNjICkKgtJCFw,25,5,0,0,0,0,1,0,0,0,0,0,0,0,0,1,0,1,0,0,0,0,0,0,1,0,0,0,0,0,0,0,0,0,0,1,0,0,0,0,2,2,1,0,0.4,0.4,0.2,0.0,Tucson,23,Super Gyros & More,-110.809215544,AZ,4.0,8585 E Broadway Blvd,32.2214078811,Tucson,"Greek, Restaurants, American (New), Hot Dogs",False,False,False,False,False,False,False,False,False,False,False,False,False,False,False,False,False,False,False,False,True,False
gsuUeNvj9iuZPapuZR45tg,34,4,0,0,0,0,1,0,0,0,0,0,0,0,1,1,0,0,0,0,0,0,0,0,0,1,0,0,0,0,0,0,0,0,0,0,0,0,0,0,3,1,0,0,0.75,0.25,0.0,0.0,Tucson,45,Bevmo!,-110.8597764,AZ,3.0,"6228 E Broadway Blvd, Ste 100",32.2202183,Tucson,"Food, Beer, Wine & Spirits",False,False,False,False,False,False,False,False,True,False,False,False,False,False,False,False,False,False,False,False,False,False
PsnjyN3llgp3BTUA2MYGuA,32,4,0,0,0,0,1,1,0,0,0,0,0,0,0,1,0,0,0,0,0,0,0,0,0,1,0,0,0,0,0,0,0,0,0,0,0,0,0,0,3,1,0,0,0.75,0.25,0.0,0.0,Tucson,33,Museum of Contemporary Art,-110.971797704,AZ,3.5,265 S Church Ave,32.2180139445,Tucson,"Museums, Art Museums, Arts & Entertainment",False,True,False,False,False,False,False,False,False,False,False,False,False,False,False,False,False,False,False,False,False,False
bEnKvED1qD5g7rNCXDJbtQ,13,0,0,0,0,0,0,0,0,0,0,0,0,0,0,0,0,0,0,0,0,0,0,0,0,0,0,0,0,0,0,0,0,0,0,0,0,0,0,0,0,0,0,0,,,,,Tucson,13,"The Gathering Point Community Acupuncture, LLC",-110.943016,AZ,4.5,1927 E Grant Rd,32.250564,Tucson,"Acupuncture, Health & Medical",False,False,False,False,False,False,False,False,False,True,False,False,False,False,False,False,False,False,False,False,False,False
Y29oTlO5PtAl8ypLSW9ZLQ,7,0,0,0,0,0,0,0,0,0,0,0,0,0,0,0,0,0,0,0,0,0,0,0,0,0,0,0,0,0,0,0,0,0,0,0,0,0,0,0,0,0,0,0,,,,,Tucson,8,Savanna MedSpa,-110.907154,AZ,4.0,"4015 E Paradise Falls Dr, Ste 131",32.270941,Tucson,"Hair Removal, Laser Hair Removal, Health & Medical, Day Spas, Medical Spas, Beauty & Spas, Skin Care",False,False,False,True,False,False,False,False,False,True,False,False,False,False,False,False,False,False,False,False,False,False
fEdDmhp6MQhuPF-iVLcmEw,49,14,0,0,0,0,0,0,2,0,0,0,0,0,1,0,0,2,0,0,0,1,0,0,4,1,0,0,0,0,0,0,0,0,0,1,0,0,0,2,6,6,2,0,0.42857142857142855,0.42857142857142855,0.14285714285714285,0.0,Tucson,46,Carlota's Authentic Mexican Cuisine,-110.993644714,AZ,3.5,10420 N La Canada Dr,32.3957481384,Tucson,"Restaurants, Food, Mexican",False,False,False,False,False,False,False,False,True,False,False,False,False,False,False,False,False,False,False,False,True,False
B7tXEz7Je7DXnSkDN5xkEw,6,3,0,0,0,0,0,0,0,0,0,0,0,0,0,2,0,0,0,0,0,0,0,0,1,0,0,0,0,0,0,0,0,0,0,0,0,0,0,0,2,1,0,0,0.6666666666666666,0.3333333333333333,0.0,0.0,Tucson,6,D'souza Netley MD,-110.834792,AZ,3.0,7395 E Tanque Verde Rd,32.251126,Tucson,"Health & Medical, Family Practice, Doctors",False,False,False,False,False,False,False,False,False,True,False,False,False,False,False,False,False,False,False,False,False,False
D7z_V6E8cxXghSRcHAmUPg,75,5,0,0,0,0,0,0,1,0,0,0,0,0,0,0,0,0,1,0,0,1,0,0,0,0,0,0,1,0,0,0,0,0,0,0,0,0,0,1,3,2,0,0,0.6,0.4,0.0,0.0,Tucson,92,La Bella China Restaurant,-110.9781864,AZ,4.0,5680 S 12th Ave,32.149473,Tucson,"Restaurants, Chinese",False,False,False,False,False,False,False,False,False,False,False,False,False,False,False,False,False,False,False,False,True,False
7KA6W8vNKhNzqtn3OrL8KQ,26,6,0,0,0,0,0,0,1,0,0,0,0,0,0,1,0,0,0,0,0,0,0,0,3,0,0,0,0,0,0,0,0,0,1,0,0,0,0,0,3,3,0,0,0.5,0.5,0.0,0.0,Tucson,23,May Flower Chinese Restaurant,-110.9746762,AZ,3.5,6462 N Oracle Rd,32.3227222,Tucson,"Restaurants, Chinese",False,False,False,False,False,False,False,False,False,False,False,False,False,False,False,False,False,False,False,False,True,False
XvzK4xzpVPq2Tj5gPv1LlA,20,1,0,0,0,0,1,0,0,0,0,0,0,0,0,0,0,0,0,0,0,0,0,0,0,0,0,0,0,0,0,0,0,0,0,0,0,0,0,0,0,1,0,0,0.0,1.0,0.0,0.0,Tucson,20,Motel 6,-110.9805149,AZ,2.0,960 S Freeway Rd,32.2103157,Tucson,"Hotels & Travel, Event Planning & Services, Hotels",False,False,False,False,False,False,True,False,False,False,False,True,False,False,False,False,False,False,False,False,False,False
nnoeKWNEPYPoYHqMsPTodg,56,4,0,0,0,0,0,1,0,0,0,0,0,0,0,0,0,2,0,0,0,0,0,0,0,0,0,0,0,0,0,0,0,0,0,0,0,0,0,1,1,1,2,0,0.25,0.25,0.5,0.0,Tucson,87,Pima Pet Clinic,-110.8894257,AZ,3.0,4832 E Speedway Blvd,32.2358594,Tucson,"Veterinarians, Pets",False,False,False,False,False,False,False,False,False,False,False,False,False,False,False,False,True,False,False,False,False,False
KYFJ7qh7bYYAsjnGrhH3NA,155,19,0,0,0,0,2,1,0,0,0,0,1,0,1,0,0,5,0,0,0,0,0,0,6,0,0,0,0,0,1,0,0,0,0,0,0,0,0,2,2,11,5,1,0.10526315789473684,0.5789473684210527,0.2631578947368421,0.05263157894736842,Tucson,182,Bing's Boba Tea,-111.0107186,AZ,4.0,"2040 W Orange Grove Rd, Ste 104",32.3246177,Tucson,"Bubble Tea, Coffee & Tea, Food, Juice Bars & Smoothies, Shaved Ice",False,False,False,False,False,False,False,False,True,False,False,False,False,False,False,False,False,False,False,False,False,False
fgig5QHniA0BKaddQsVFfA,53,4,0,0,0,0,0,0,0,0,0,0,0,0,0,0,0,1,0,0,0,0,0,0,0,0,0,0,0,1,0,0,0,0,1,0,0,0,0,1,2,1,1,0,0.5,0.25,0.25,0.0,Tucson,73,Toni & Guy - Tucson,-110.974145531,AZ,4.0,"4500 N Oracle Rd, N Oracle Rd Ste 331, Tucson Mall",32.2885069024,Tucson,"Beauty & Spas, Hair Salons, Hair Stylists, Barbers",False,False,False,True,False,False,False,False,False,False,False,False,False,False,False,False,False,False,False,False,False,False
l2iCpfaBZSGlPrmmqjRmrg,38,7,0,0,0,0,0,0,0,0,0,0,0,0,1,0,0,3,0,0,0,0,0,1,0,2,0,0,0,0,0,0,0,0,0,0,0,0,0,0,3,0,4,0,0.42857142857142855,0.0,0.5714285714285714,0.0,Tucson,41,LaLa Lash Couture Boutique,-110.933378041,AZ,3.5,2605 E Speedway Blvd,32.2363961,Tucson,"Waxing, Beauty & Spas, Hair Removal, Skin Care, Day Spas, Sugaring, Eyelash Service",False,False,False,True,False,False,False,False,False,False,False,False,False,False,False,False,False,False,False,False,False,False
hx-qUirkgRqX2Bk8A2U0nA,40,5,0,0,0,0,0,0,1,0,0,0,0,0,0,0,0,1,1,0,0,0,0,0,0,0,0,0,0,0,1,0,0,0,0,0,0,0,0,1,1,3,1,0,0.2,0.6,0.2,0.0,Tucson,40,Pima County Fair,-110.7738958,AZ,4.0,11300 S Houghton Rd,32.0482633,Tucson,"Arts & Entertainment, Venues & Event Spaces, Event Planning & Services, Festivals",False,True,False,False,False,False,True,False,False,False,False,False,False,False,False,False,False,False,False,False,False,False
p-oXKlQ_6JUCb1pZKYmq-w,23,4,0,0,0,0,0,0,0,0,0,0,0,0,0,0,0,1,0,0,0,0,0,0,0,1,0,0,0,0,0,0,0,0,1,0,0,0,0,1,2,1,1,0,0.5,0.25,0.25,0.0,Tucson,24,BevMo!,-110.9774413,AZ,3.0,"4646 N Oracle Rd, Ste 130",32.2911858,Tucson,"Food, Beer, Wine & Spirits",False,False,False,False,False,False,False,False,True,False,False,False,False,False,False,False,False,False,False,False,False,False
QdQpt47Xg6GXZfJm-Kaebw,41,9,0,0,0,0,0,0,1,0,0,0,0,0,1,1,0,2,0,0,0,0,0,0,1,0,0,0,0,0,0,0,0,0,0,1,0,0,0,2,4,3,2,0,0.4444444444444444,0.3333333333333333,0.2222222222222222,0.0,Tucson,47,Hungry Howie's Pizza,-110.822914,AZ,3.5,"150 N Pantano Rd, Ste 104",32.223015,Tucson,"Restaurants, Food Delivery Services, Food, Pizza",False,False,False,False,False,False,False,False,True,False,False,False,False,False,False,False,False,False,False,False,True,False
mWv9wdM5OD7tiDzf3DkyXw,74,14,0,0,0,0,0,0,2,0,0,0,0,0,1,0,0,1,1,0,0,0,0,0,3,1,0,0,0,0,0,0,0,0,1,0,0,0,0,4,5,8,1,0,0.35714285714285715,0.5714285714285714,0.07142857142857142,0.0,Tucson,76,LA Fitness,-111.0908436,AZ,4.0,5885 W Arizona Pavilions Dr,32.3527211,Tucson,"Yoga, Gyms, Sports Clubs, Active Life, Trainers, Fitness & Instruction",True,False,False,False,False,False,False,False,False,False,False,False,False,False,False,False,False,False,False,False,False,False
dtkJIiywDljHkKIPCeaCog,8,1,0,0,0,0,0,0,0,0,0,0,0,0,0,0,0,0,0,0,0,0,0,0,1,0,0,0,0,0,0,0,0,0,0,0,0,0,0,0,0,1,0,0,0.0,1.0,0.0,0.0,Tucson,8,Arizona School of Acupuncture & Oriental Medicine,-110.9291718,AZ,5.0,2856 E Fort Lowell Rd,32.2645096,Tucson,"Naturopathic/Holistic, Tui Na, Colleges & Universities, Acupuncture, Health & Medical, Doctors, Education, Specialty Schools, Traditional Chinese Medicine",False,False,False,False,False,True,False,False,False,True,False,False,False,False,False,False,False,False,False,False,False,False
23wO6ic61V41UfGz9eCeQQ,42,7,0,0,0,0,0,0,0,0,0,0,0,0,2,0,0,0,0,0,0,0,0,0,2,2,0,0,0,0,0,0,0,0,0,0,0,0,0,1,4,3,0,0,0.5714285714285714,0.42857142857142855,0.0,0.0,Tucson,71,Nothing Bundt Cakes,-110.876958113,AZ,4.5,"5420 E Broadway Blvd, Ste 254",32.2206902,Tucson,"Desserts, Cupcakes, Bakeries, Food",False,False,False,False,False,False,False,False,True,False,False,False,False,False,False,False,False,False,False,False,False,False
U6e8OQ-YEUOqMyrym3jhOw,39,9,0,0,0,0,0,0,0,0,0,0,0,0,0,1,0,1,0,0,0,0,0,0,2,0,0,1,0,0,0,0,0,0,0,4,0,0,0,0,6,2,1,0,0.6666666666666666,0.2222222222222222,0.1111111111111111,0.0,Tucson,41,Foothills Barbers,-111.0300666,AZ,5.0,"2912 W Ina Rd, Ste 120",32.3378073,Tucson,"Beauty & Spas, Hair Salons, Barbers",False,False,False,True,False,False,False,False,False,False,False,False,False,False,False,False,False,False,False,False,False,False
k99AF2JQUj8rbpBR-33lGA,8,1,0,0,0,0,0,0,0,0,0,0,0,0,0,0,0,0,0,0,0,0,0,0,0,0,0,0,0,0,0,0,0,0,0,0,1,0,0,0,0,1,0,0,0.0,1.0,0.0,0.0,Tucson,8,Cabana Boy Pool Works,-111.059679814,AZ,2.5,9265 N Spotted Corn Pl,32.3940368957,Tucson,"Masonry/Concrete, Home Services, Pool Cleaners, Swimming Pools, Contractors, Active Life, Pool & Hot Tub Service, Decks & Railing",True,False,False,False,False,False,False,False,False,False,True,False,False,False,False,False,False,False,False,False,False,False
MRhY6SqTnOrlr1Wte9c-4Q,39,5,0,0,0,0,0,0,0,0,0,0,0,0,0,0,0,0,0,0,0,0,0,0,2,0,0,0,0,0,0,0,0,0,0,0,0,0,0,3,0,5,0,0,0.0,1.0,0.0,0.0,Tucson,46,Precise Dental,-110.7718702,AZ,5.0,"105 S Houghton Rd, Ste 125",32.2196247,Tucson,"General Dentistry, Health & Medical, Cosmetic Dentists, Endodontists, Dentists",False,False,False,False,False,False,False,False,False,True,False,False,False,False,False,False,False,False,False,False,False,False
DHm65Nj4kCKkzV86cJCNdg,40,22,0,0,0,0,1,0,0,0,0,0,0,0,2,0,0,1,2,0,1,0,0,0,1,4,1,0,0,0,0,0,0,0,2,3,0,0,0,4,12,8,2,0,0.5454545454545454,0.36363636363636365,0.09090909090909091,0.0,Tucson,59,Eric's Flower Market,-110.943499,AZ,2.5,2458 N Campbell Ave,32.251383,Tucson,"Event Planning & Services, Flowers & Gifts, Florists, Wedding Planning, Shopping",False,False,False,False,False,False,True,False,False,False,False,False,False,False,False,False,False,False,False,False,False,True
Cs2dygQDyk_XxRL7uCgqrg,37,4,0,0,0,0,0,0,0,0,0,0,1,0,0,1,0,0,0,0,0,1,0,0,0,0,0,0,0,0,0,0,0,0,1,0,0,0,0,0,3,0,0,1,0.75,0.0,0.0,0.25,Tucson,43,Ajo Cafe,-110.9252135,AZ,4.0,3132 E Ajo Way,32.1775724,Tucson,"Diners, Breakfast & Brunch, Restaurants",False,False,False,False,False,False,False,False,False,False,False,False,False,False,False,False,False,False,False,False,True,False
dP0ikOU7PzP2an4p-qOALA,7,1,0,0,0,0,0,0,0,0,0,0,0,0,0,0,0,0,0,0,0,0,0,0,1,0,0,0,0,0,0,0,0,0,0,0,0,0,0,0,0,1,0,0,0.0,1.0,0.0,0.0,Tucson,7,Principal Property Management,-110.943259,AZ,2.0,"3390 N Campbell Ave, Ste 130",32.268405,Tucson,"Home Services, Real Estate, Property Management",False,False,False,False,False,False,False,False,False,False,True,False,False,False,False,False,False,False,False,False,False,False
IHd8_cnLZe5oILE_oKy-5g,25,10,0,0,0,0,0,0,1,0,0,0,0,0,0,1,0,1,0,0,0,0,0,0,4,1,0,0,0,1,0,0,0,0,0,0,0,0,0,1,4,5,1,0,0.4,0.5,0.1,0.0,Tucson,23,Gary Ray's Texas BBQ,-110.735050477,AZ,2.5,5400 S Old Spanish Trl,32.1518225651,Tucson,"Restaurants, Food, Barbeque, Burgers",False,False,False,False,False,False,False,False,True,False,False,False,False,False,False,False,False,False,False,False,True,False
8AKqLWMjkvzZ0TMakov2xg,15,2,0,0,0,0,0,0,0,0,0,0,0,0,0,0,0,1,1,0,0,0,0,0,0,0,0,0,0,0,0,0,0,0,0,0,0,0,0,0,0,1,1,0,0.0,0.5,0.5,0.0,Tucson,15,Diablo's Sports Bar and Grill,-110.8748784,AZ,2.5,2545 S Craycroft Rd,32.1929848,Tucson,"American (New), Restaurants, Sports Bars, Bars, Nightlife",False,False,False,False,False,False,False,False,False,False,False,False,False,False,False,True,False,False,False,False,True,False
i9yd8EPVhzeV9LvQ0xHaHA,5,0,0,0,0,0,0,0,0,0,0,0,0,0,0,0,0,0,0,0,0,0,0,0,0,0,0,0,0,0,0,0,0,0,0,0,0,0,0,0,0,0,0,0,,,,,Tucson,6,AutoZone Auto Parts,-110.967941,AZ,3.5,2023 S 6th Ave,32.1982609,Tucson,"Auto Parts & Supplies, Automotive",False,False,True,False,False,False,False,False,False,False,False,False,False,False,False,False,False,False,False,False,False,False
a0_wSrpAqg_eHnNej273Sw,132,53,0,0,0,0,2,0,0,0,0,0,0,1,7,1,0,1,1,0,0,0,0,0,15,6,0,0,0,0,1,0,0,0,2,2,0,0,0,14,18,34,1,0,0.33962264150943394,0.6415094339622641,0.018867924528301886,0.0,Tucson,138,Gusto Osteria,-110.839897,AZ,4.0,7153 E Tanque Verde Rd,32.252344,Tucson,"Restaurants, Italian",False,False,False,False,False,False,False,False,False,False,False,False,False,False,False,False,False,False,False,False,True,False
Nz0AJVskEAlMVgF2HMhFRw,57,10,0,0,0,0,0,0,0,0,0,0,0,0,1,0,1,2,0,0,0,0,0,0,2,1,0,0,0,0,1,0,0,0,1,0,0,0,0,1,3,5,2,0,0.3,0.5,0.2,0.0,Tucson,62,Sunrise Cafe,-110.8458819,AZ,3.0,"6878 E Sunrise Dr, Ste 160",32.3074071,Tucson,"Restaurants, Food, Middle Eastern, Mediterranean, Greek, Coffee & Tea",False,False,False,False,False,False,False,False,True,False,False,False,False,False,False,False,False,False,False,False,True,False
L8M_1RJMs5fvecy-JglINw,10,1,0,0,0,0,1,0,0,0,0,0,0,0,0,0,0,0,0,0,0,0,0,0,0,0,0,0,0,0,0,0,0,0,0,0,0,0,0,0,0,1,0,0,0.0,1.0,0.0,0.0,Tucson,10,Chirco Performance & Restoration,-110.7984351,AZ,4.0,9101 E 22nd St,32.2070039,Tucson,"Automotive, Auto Repair",False,False,True,False,False,False,False,False,False,False,False,False,False,False,False,False,False,False,False,False,False,False
fxv1yDFmkgwkeFs-O7R5HQ,29,2,0,0,0,0,1,0,0,0,0,0,0,0,0,0,0,0,0,0,0,0,0,0,0,0,0,0,0,0,0,0,0,0,0,0,0,0,0,1,0,2,0,0,0.0,1.0,0.0,0.0,Tucson,28,Savor Food & Wine Festival,-110.908785,AZ,4.5,2150 N Alvernon Way,32.248523,Tucson,"Arts & Entertainment, Festivals, Local Flavor",False,True,False,False,False,False,False,False,False,False,False,False,True,False,False,False,False,False,False,False,False,False
pYscac0LOY0UTu6zuC4VAA,9,0,0,0,0,0,0,0,0,0,0,0,0,0,0,0,0,0,0,0,0,0,0,0,0,0,0,0,0,0,0,0,0,0,0,0,0,0,0,0,0,0,0,0,,,,,Tucson,14,Midas,-110.974518077,AZ,2.5,333 W Valencia Rd,32.1335999945,Tucson,"Auto Repair, Automotive, Oil Change Stations, Tires",False,False,True,False,False,False,False,False,False,False,False,False,False,False,False,False,False,False,False,False,False,False
H1i2aWZKw0SRPfaDImV5XA,44,2,0,0,0,0,0,0,0,0,0,0,0,0,0,0,0,0,0,0,0,0,0,1,0,0,0,0,0,0,0,0,0,0,0,0,0,0,0,1,0,1,1,0,0.0,0.5,0.5,0.0,Tucson,62,Wingstop,-111.0438984,AZ,3.0,3662 W Ina Rd,32.3380579,Tucson,"Chicken Wings, Restaurants, American (New)",False,False,False,False,False,False,False,False,False,False,False,False,False,False,False,False,False,False,False,False,True,False
78z4uWjRJ-gpeANI6FrRYQ,31,0,0,0,0,0,0,0,0,0,0,0,0,0,0,0,0,0,0,0,0,0,0,0,0,0,0,0,0,0,0,0,0,0,0,0,0,0,0,0,0,0,0,0,,,,,Tucson,32,Baggin's Gourmet Sandwiches,-110.97233911,AZ,3.0,"33 N Stone Ave, Ste 108",32.22252,Tucson,"Restaurants, Food Delivery Services, Sandwiches, Food",False,False,False,False,False,False,False,False,True,False,False,False,False,False,False,False,False,False,False,False,True,False
4pttw53YrhH253K15D9_wg,23,1,0,0,0,0,0,0,0,0,0,0,0,0,0,0,0,1,0,0,0,0,0,0,0,0,0,0,0,0,0,0,0,0,0,0,0,0,0,0,0,0,1,0,0.0,0.0,1.0,0.0,Tucson,27,Jimmy John's,-110.9777208,AZ,3.5,4356 N Oracle Rd,32.2858065,Tucson,"Fast Food, Food, Sandwiches, Food Delivery Services, Delis, Restaurants",False,False,False,False,False,False,False,False,True,False,False,False,False,False,False,False,False,False,False,False,True,False
Vk3Up8OlB8h2ygVlvm8tBQ,4,0,0,0,0,0,0,0,0,0,0,0,0,0,0,0,0,0,0,0,0,0,0,0,0,0,0,0,0,0,0,0,0,0,0,0,0,0,0,0,0,0,0,0,,,,,Tucson,5,Arcadia Landscape,-110.9422112,AZ,3.0,2002 E 13th St,32.2185242,Tucson,"Masonry/Concrete, Gardeners, Tree Services, Landscape Architects, Landscaping, Irrigation, Shopping, Nurseries & Gardening, Home & Garden, Home Services",False,False,False,False,False,False,False,False,False,False,True,False,False,False,False,False,False,False,False,False,False,True
45eRur6nP61UWJ5A2W2oSQ,17,1,0,0,0,0,0,0,0,0,0,0,0,0,0,0,0,0,0,0,0,0,0,0,0,0,0,0,0,0,0,0,0,0,0,0,0,0,0,1,0,1,0,0,0.0,1.0,0.0,0.0,Tucson,18,Liferoot Acupuncture & Healing Arts,-110.936382906,AZ,5.0,"1601 N Tucson Blvd, Ste 14",32.2421985936,Tucson,"Traditional Chinese Medicine, Health & Medical, Acupuncture, Massage Therapy, Reiki",False,False,False,False,False,False,False,False,False,True,False,False,False,False,False,False,False,False,False,False,False,False
2x31vm7m-ySddAlR5GWmbw,14,5,0,0,0,0,0,1,0,0,0,0,0,0,2,0,0,0,0,0,0,0,0,0,1,0,0,0,0,0,0,0,0,0,0,0,0,0,0,1,3,2,0,0,0.6,0.4,0.0,0.0,Tucson,14,Sports Authority,-110.8403475,AZ,3.5,7110 East Broadway,32.22062,Tucson,"Shopping, Fashion, Outdoor Gear, Sports Wear, Sporting Goods",False,False,False,False,False,False,False,False,False,False,False,False,False,False,False,False,False,False,False,False,False,True
